$PSTOE,0000.00,h,0000.00,h*5d
$IIMTW,22.3,C*10
!AIVDM,1,1,,A,B3`fKa@08@60t6WSHwo37wgUoP06,0*1B
$IIVWR,024,L,24.3,N,,,,*7c
$GPGGA,110732.000,5249.1573,N,00522.4599,E,2,12,0.75,-10.6,M,46.8,M,0000,0000*76
$GPGSA,A,3,01,20,22,30,21,10,11,27,28,32,08,16,1.22,0.75,0.96*0D
$GPGSV,4,1,13,08,78,263,26,21,60,078,41,27,60,140,42,10,55,075,42*70
$GPGSV,4,2,13,11,49,278,37,39,26,155,,20,25,053,29,01,23,260,29*71
$GPGSV,4,3,13,16,17,187,31,32,15,125,39,22,09,211,32,28,07,332,23*7C
$GPGSV,4,4,13,30,05,302,26*48
$GPRMC,110732.000,A,5249.1573,N,00522.4599,E,5.11,104.73,090820,,,D*64
!AIVDM,1,1,,A,13`kDegP00PGdmRNE9aN4?w02<55,0*2A
$PSTOE,0000.00,h,0000.00,h*5d
$IIMTW,22.3,C*10
!AIVDM,1,1,,A,B3`fKa@08@60t6WSHwo37wgUoP06,0*1B
$IIVWR,024,L,24.3,N,,,,*7c
$GPGGA,110732.000,5249.1573,N,00522.4599,E,2,12,0.75,-10.6,M,46.8,M,0000,0000*76
$GPGSA,A,3,01,20,22,30,21,10,11,27,28,32,08,16,1.22,0.75,0.96*0D
$GPGSV,4,1,13,08,78,263,26,21,60,078,41,27,60,140,42,10,55,075,42*70
$GPGSV,4,2,13,11,49,278,37,39,26,155,,20,25,053,29,01,23,260,29*71
$GPGSV,4,3,13,16,17,187,31,32,15,125,39,22,09,211,32,28,07,332,23*7C
$GPGSV,4,4,13,30,05,302,26*48
$GPRMC,110732.000,A,5249.1573,N,00522.4599,E,5.11,104.73,090820,,,D*64
!AIVDM,1,1,,A,13`kDegP00PGdmRNE9aN4?w02<55,0*2A
!AIVDM,1,1,,B,B3`nw<00@`68hq7SPBaE3wh5oP06,0*54
$PSTON,350.79,N*0e
!AIVDM,1,1,,B,B39NomP0<`65lR7Rf1Q0cwh1n1MQ,0*7D
!AIVDM,1,1,,B,B39H?CP0<85lA`7TPO>9Owh5oP06,0*62
$IIVLW,1623.1,N,009.66,N*43
$AOXDR,U,12.9,V,BATT*54
$IIVWR,025,L,22.4,N,,,,*7c
!AIVDM,1,1,,B,B3`nw<00@`68hq7SPBaE3wh5oP06,0*54
$PSTON,350.79,N*0e
!AIVDM,1,1,,B,B39NomP0<`65lR7Rf1Q0cwh1n1MQ,0*7D
!AIVDM,1,1,,B,B39H?CP0<85lA`7TPO>9Owh5oP06,0*62
$IIVLW,1623.1,N,009.66,N*43
$AOXDR,U,12.9,V,BATT*54
$IIVWR,025,L,22.4,N,,,,*7c
!AIVDM,1,1,,A,B33PO>00A86E2:WSOgP1swhUoP06,0*0A
$GPGGA,110733.000,5249.1570,N,00522.4623,E,2,12,0.75,-10.7,M,46.8,M,0000,0000*77
$GPGSA,A,3,01,20,22,30,21,10,11,27,28,32,08,16,1.22,0.75,0.96*0D
!AIVDM,1,1,,B,13aFgjgP0SPHw@dN<3tIHww220S>,0*7B
$GPGSV,4,1,13,08,78,263,35,21,60,078,40,27,60,140,42,10,55,075,42*73
$GPGSV,4,2,13,11,49,278,36,39,26,155,,20,25,053,29,01,23,260,29*70
$GPGSV,4,3,13,16,17,187,31,32,15,125,39,22,09,211,32,28,07,332,23*7C
$GPGSV,4,4,13,30,05,302,26*48
$GPRMC,110733.000,A,5249.1570,N,00522.4623,E,5.42,105.47,090820,,,D*64
!AIVDM,1,1,,B,13aGrmhP0LPH;RLN9eQqi?w225HL,0*45
!AIVDM,1,1,,B,13aJGGhP000IuQ0N?6T>4?w20<3W,0*52
!AIVDM,1,1,,B,B3aB:k00@h6@F:7SI6h;wwh5kP06,0*2C
!AIVDM,1,1,,A,13aFfG`P0pPI054N;:cb7Ow225HL,0*0A
!AIVDM,1,1,,A,33aFesOP000HB`4N:DAf4?w20341,0*39
!AIVDM,1,1,,B,B3aBKr00:866f57Si:5s7whUoP06,0*2A
!AIVDM,1,1,,A,B33PO>00A86E2:WSOgP1swhUoP06,0*0A
$GPGGA,110733.000,5249.1570,N,00522.4623,E,2,12,0.75,-10.7,M,46.8,M,0000,0000*77
$GPGSA,A,3,01,20,22,30,21,10,11,27,28,32,08,16,1.22,0.75,0.96*0D
!AIVDM,1,1,,B,13aFgjgP0SPHw@dN<3tIHww220S>,0*7B
$GPGSV,4,1,13,08,78,263,35,21,60,078,40,27,60,140,42,10,55,075,42*73
$GPGSV,4,2,13,11,49,278,36,39,26,155,,20,25,053,29,01,23,260,29*70
$GPGSV,4,3,13,16,17,187,31,32,15,125,39,22,09,211,32,28,07,332,23*7C
$GPGSV,4,4,13,30,05,302,26*48
$GPRMC,110733.000,A,5249.1570,N,00522.4623,E,5.42,105.47,090820,,,D*64
!AIVDM,1,1,,B,13aGrmhP0LPH;RLN9eQqi?w225HL,0*45
!AIVDM,1,1,,B,13aJGGhP000IuQ0N?6T>4?w20<3W,0*52
!AIVDM,1,1,,B,B3aB:k00@h6@F:7SI6h;wwh5kP06,0*2C
!AIVDM,1,1,,A,13aFfG`P0pPI054N;:cb7Ow225HL,0*0A
!AIVDM,1,1,,A,33aFesOP000HB`4N:DAf4?w20341,0*39
!AIVDM,1,1,,B,B3aBKr00:866f57Si:5s7whUoP06,0*2A
!AIVDM,1,1,,A,B3FGRO00?h66=J7SSn=fOwi5oP06,0*34
!AIVDM,1,1,,A,B3`kE;P0:85wma7S@eaESwi5oP06,0*2A
!AIVDM,1,1,,A,13`je9@t1HPHIcTN=<Rev?w420Rf,0*1D
!AIVDM,1,1,,B,4h2E:wAvB4c7QPG6I@NBHti020S:,0*2D
!AIVDM,1,1,,A,13aGEk8P0oPH<N8N;Tu5aOw42<2@,0*39
!AIVDM,1,1,,B,13aENJOP0KPHhpJN:kpljOw42D3w,0*7E
$PSTON,350.79,N*0e
$AODBT,0014.3,f,4.4,M,,*41
$AODBT,0014.3,f,4.4,M,,*41
$IIVWR,027,L,22.2,N,,,,*78
!AIVDM,1,1,,A,B3FGRO00?h66=J7SSn=fOwi5oP06,0*34
!AIVDM,1,1,,A,B3`kE;P0:85wma7S@eaESwi5oP06,0*2A
!AIVDM,1,1,,A,13`je9@t1HPHIcTN=<Rev?w420Rf,0*1D
!AIVDM,1,1,,B,4h2E:wAvB4c7QPG6I@NBHti020S:,0*2D
!AIVDM,1,1,,A,13aGEk8P0oPH<N8N;Tu5aOw42<2@,0*39
!AIVDM,1,1,,B,13aENJOP0KPHhpJN:kpljOw42D3w,0*7E
$PSTON,350.79,N*0e
$AODBT,0014.3,f,4.4,M,,*41
$AODBT,0014.3,f,4.4,M,,*41
$IIVWR,027,L,22.2,N,,,,*78
!AIVDM,2,1,9,A,53aFesH000010;;CSJ0Ps?F0PE8lTp400000000N0@?3240Ht30000000000,0*38
!AIVDM,2,2,9,A,00000000000,2*2D
!AIVDM,1,1,,B,13aGFK?P0Q0IA1tN=f8Mtgw605HL,0*4C
$AODBT,0013.9,f,4.2,M,,*4a
!AIVDM,1,1,,A,B3`e<nP07p5oH?7S7Knp7wi5oP06,0*29
$PSTOE,0000.00,h,0000.00,h*5d
$GPGGA,110735.000,5249.1565,N,00522.4676,E,2,12,0.75,-10.5,M,46.8,M,0000,0000*77
$GPGSA,A,3,01,20,22,30,21,10,11,27,28,32,08,16,1.22,0.75,0.96*0D
$IIMTW,22.3,C*10
!AIVDM,1,1,,B,13aI<LpP0nPH8q4N?b5E3ww625HL,0*01
$GPGSV,4,1,13,08,78,263,32,21,60,078,25,27,60,140,26,10,55,074,42*74
$GPGSV,4,2,13,11,49,278,38,33,26,205,,20,25,053,26,01,23,260,28*7C
$GPGSV,4,3,13,16,17,187,27,32,15,125,38,22,09,211,32,28,07,332,22*7B
$GPGSV,4,4,13,30,05,302,26*48
$GPRMC,110735.000,A,5249.1565,N,00522.4676,E,5.13,105.58,090820,,,D*6C
!AIVDM,1,1,,A,13aRtL?P0SPGMjlN519=LOw62HDo,0*22
!AIVDM,1,1,,B,13aEPJhP00PJ0?dN?j:h0?w62N5@,0*5E
!AIVDM,2,1,9,A,53aFesH000010;;CSJ0Ps?F0PE8lTp400000000N0@?3240Ht30000000000,0*38
!AIVDM,2,2,9,A,00000000000,2*2D
!AIVDM,1,1,,B,13aGFK?P0Q0IA1tN=f8Mtgw605HL,0*4C
$AODBT,0013.9,f,4.2,M,,*4a
!AIVDM,1,1,,A,B3`e<nP07p5oH?7S7Knp7wi5oP06,0*29
$PSTOE,0000.00,h,0000.00,h*5d
$GPGGA,110735.000,5249.1565,N,00522.4676,E,2,12,0.75,-10.5,M,46.8,M,0000,0000*77
$GPGSA,A,3,01,20,22,30,21,10,11,27,28,32,08,16,1.22,0.75,0.96*0D
$IIMTW,22.3,C*10
!AIVDM,1,1,,B,13aI<LpP0nPH8q4N?b5E3ww625HL,0*01
$GPGSV,4,1,13,08,78,263,32,21,60,078,25,27,60,140,26,10,55,074,42*74
$GPGSV,4,2,13,11,49,278,38,33,26,205,,20,25,053,26,01,23,260,28*7C
$GPGSV,4,3,13,16,17,187,27,32,15,125,38,22,09,211,32,28,07,332,22*7B
$GPGSV,4,4,13,30,05,302,26*48
$GPRMC,110735.000,A,5249.1565,N,00522.4676,E,5.13,105.58,090820,,,D*6C
!AIVDM,1,1,,A,13aRtL?P0SPGMjlN519=LOw62HDo,0*22
!AIVDM,1,1,,B,13aEPJhP00PJ0?dN?j:h0?w62N5@,0*5E
!AIVDM,1,1,,A,13aQdgp01MPEr:vNDjkVSK2j0<<P,0*7D
!AIVDM,1,1,,A,13a2KL?0000GG7nN?hWh01s62@Du,0*37
!AIVDM,1,1,,A,B3`dURP0:h65lG7SlukPCwiUoP06,0*39
$IIVWR,030,L,22.2,N,,,,*7e
$PSTOE,0000.00,h,0000.00,h*5d
$PSTON,350.80,N*08
!AIVDM,1,1,,A,13aGtM0P00PI3BnNBGSf4?w820Rh,0*5F
$IIVLW,1623.1,N,009.67,N*42
$AOXDR,U,13.0,V,BATT*5c
$GPGGA,110736.000,5249.1562,N,00522.4699,E,2,12,0.75,-10.7,M,46.8,M,0000,0000*70
$GPGSA,A,3,01,20,22,30,21,10,11,27,28,32,08,16,1.22,0.75,0.96*0D
$GPGSV,4,1,13,08,78,263,33,21,60,078,27,27,60,140,38,10,55,074,42*78
!AIVDM,1,1,,A,13aQdgp01MPEr:vNDjkVSK2j0<<P,0*7D
!AIVDM,1,1,,A,13a2KL?0000GG7nN?hWh01s62@Du,0*37
!AIVDM,1,1,,A,B3`dURP0:h65lG7SlukPCwiUoP06,0*39
$IIVWR,030,L,22.2,N,,,,*7e
$PSTOE,0000.00,h,0000.00,h*5d
$PSTON,350.80,N*08
!AIVDM,1,1,,A,13aGtM0P00PI3BnNBGSf4?w820Rh,0*5F
$IIVLW,1623.1,N,009.67,N*42
$AOXDR,U,13.0,V,BATT*5c
$GPGGA,110736.000,5249.1562,N,00522.4699,E,2,12,0.75,-10.7,M,46.8,M,0000,0000*70
$GPGSA,A,3,01,20,22,30,21,10,11,27,28,32,08,16,1.22,0.75,0.96*0D
$GPGSV,4,1,13,08,78,263,33,21,60,078,27,27,60,140,38,10,55,074,42*78
$GPGSV,4,2,13,11,49,278,38,33,26,205,,20,25,053,24,01,23,260,29*7F
$IIVWR,021,L,21.2,N,,,,*7d
$GPGSV,4,3,13,16,17,187,28,32,15,125,38,22,09,211,32,28,07,332,21*77
$GPGSV,4,4,13,30,05,302,24*4A
$GPRMC,110736.000,A,5249.1562,N,00522.4699,E,5.17,105.97,090820,,,D*6E
!AIVDM,1,1,,A,B3aNcH005h5sDCWT4hAawwj5kP06,0*52
!AIVDM,1,1,,B,E>jN6U?1SnPP00000000000000009@@d>uwrP00003v010,4*19
!AIVDM,1,1,,B,B3`lP9P0<h6GTH7SAf1mowj0h@ES,0*0B
$AODBT,0013.9,f,4.2,M,,*4a
$GPGSV,4,2,13,11,49,278,38,33,26,205,,20,25,053,24,01,23,260,29*7F
$IIVWR,021,L,21.2,N,,,,*7d
$GPGSV,4,3,13,16,17,187,28,32,15,125,38,22,09,211,32,28,07,332,21*77
$GPGSV,4,4,13,30,05,302,24*4A
$GPRMC,110736.000,A,5249.1562,N,00522.4699,E,5.17,105.97,090820,,,D*6E
!AIVDM,1,1,,A,B3aNcH005h5sDCWT4hAawwj5kP06,0*52
!AIVDM,1,1,,B,E>jN6U?1SnPP00000000000000009@@d>uwrP00003v010,4*19
!AIVDM,1,1,,B,B3`lP9P0<h6GTH7SAf1mowj0h@ES,0*0B
$AODBT,0013.9,f,4.2,M,,*4a
$IIMTW,22.2,C*11
!AIVDM,1,1,,A,B3aQeE009H63rsWS;6ad7wj5oP06,0*18
!AIVDM,1,1,,A,13aENr@P030HS8jN@Nr9l?w:0@Ed,0*12
$AODBT,0014.4,f,4.4,M,,*46
!AIVDM,1,1,,A,B3aFe500@`67dtWSW=uEKwjUoP06,0*75
$GPGGA,110737.000,5249.1555,N,00522.4718,E,2,11,0.83,-10.8,M,46.8,M,0000,0000*78
$GPGSA,A,3,01,20,22,30,21,10,11,27,32,08,16,,1.34,0.83,1.05*02
$IIVWR,025,L,20.7,N,,,,*7d
$GPGSV,4,1,13,08,78,263,33,21,60,078,40,27,60,140,39,10,55,074,42*78
$GPGSV,4,2,13,11,49,278,37,33,26,205,,20,25,053,26,01,23,260,28*73
$GPGSV,4,3,13,16,17,187,32,32,15,125,38,22,09,211,32,28,07,332,20*7D
$GPGSV,4,4,13,30,05,302,25*4B
$GPRMC,110737.000,A,5249.1555,N,00522.4718,E,5.17,107.28,090820,,,D*65
!AIVDM,1,1,,B,13`i<;PP0aPHAOBN:tL5c?w:25HL,0*47
!AIVDM,1,1,,A,H3`eQrP55DThv22222222222220,2*25
$IIMTW,22.2,C*11
!AIVDM,1,1,,A,B3aQeE009H63rsWS;6ad7wj5oP06,0*18
!AIVDM,1,1,,A,13aENr@P030HS8jN@Nr9l?w:0@Ed,0*12
$AODBT,0014.4,f,4.4,M,,*46
!AIVDM,1,1,,A,B3aFe500@`67dtWSW=uEKwjUoP06,0*75
$GPGGA,110737.000,5249.1555,N,00522.4718,E,2,11,0.83,-10.8,M,46.8,M,0000,0000*78
$GPGSA,A,3,01,20,22,30,21,10,11,27,32,08,16,,1.34,0.83,1.05*02
$IIVWR,025,L,20.7,N,,,,*7d
$GPGSV,4,1,13,08,78,263,33,21,60,078,40,27,60,140,39,10,55,074,42*78
$GPGSV,4,2,13,11,49,278,37,33,26,205,,20,25,053,26,01,23,260,28*73
$GPGSV,4,3,13,16,17,187,32,32,15,125,38,22,09,211,32,28,07,332,20*7D
$GPGSV,4,4,13,30,05,302,25*4B
$GPRMC,110737.000,A,5249.1555,N,00522.4718,E,5.17,107.28,090820,,,D*65
!AIVDM,1,1,,B,13`i<;PP0aPHAOBN:tL5c?w:25HL,0*47
!AIVDM,1,1,,A,H3`eQrP55DThv22222222222220,2*25
!AIVDM,1,1,,B,B3a?Sph0>p60TK7SKFGFKwjUoP06,0*74
!AIVDM,1,1,,A,H39eMj05E=A84hU<00000000000,2*25
!AIVDM,1,1,,A,B39eMj00006<;AWT;NJT;wj5kP06,0*1A
!AIVDM,1,1,,A,B3`tOD@0?h6<EhWRulMSowjUkP06,0*50
!AIVDM,1,1,,A,B3aIjv@0?H6=:`WT<etw3wjUoP06,0*2E
$PSTON,350.80,N*08
$AODBT,0014.4,f,4.4,M,,*46
!AIVDM,1,1,,B,13aBKJ0P00PG6UnNBETN4?w:2<4H,0*18
$IIVWR,024,L,19.0,N,,,,*71
!AIVDM,1,1,,B,B3a?Sph0>p60TK7SKFGFKwjUoP06,0*74
!AIVDM,1,1,,A,H39eMj05E=A84hU<00000000000,2*25
!AIVDM,1,1,,A,B39eMj00006<;AWT;NJT;wj5kP06,0*1A
!AIVDM,1,1,,A,B3`tOD@0?h6<EhWRulMSowjUkP06,0*50
!AIVDM,1,1,,A,B3aIjv@0?H6=:`WT<etw3wjUoP06,0*2E
$PSTON,350.80,N*08
$AODBT,0014.4,f,4.4,M,,*46
!AIVDM,1,1,,B,13aBKJ0P00PG6UnNBETN4?w:2<4H,0*18
$IIVWR,024,L,19.0,N,,,,*71
!AIVDM,1,1,,A,13aEOm?P00PHRDRN@ijb6ww<20Rw,0*53
$AODBT,0014.4,f,4.4,M,,*46
!AIVDM,1,1,,A,H3`eQrTT1=30G<c@5qlopP0h412t,0*50
$GPGGA,110738.000,5249.1548,N,00522.4738,E,2,12,0.75,-10.8,M,46.8,M,0000,0000*73
$PSTOE,0000.00,h,0000.00,h*5d
$GPGSA,A,3,01,20,22,30,21,10,11,27,28,32,08,16,1.22,0.75,0.96*0D
$GPGSV,4,1,13,08,78,263,32,21,60,078,41,27,60,140,40,10,55,074,42*76
$GPGSV,4,2,13,11,49,278,37,33,26,205,,20,25,053,28,01,23,260,28*7D
$GPGSV,4,3,13,16,17,187,34,32,15,125,38,22,09,211,32,28,07,332,29*72
$GPGSV,4,4,13,30,05,302,26*48
$GPRMC,110738.000,A,5249.1548,N,00522.4738,E,5.13,107.82,090820,,,D*60
!AIVDM,1,1,,A,139jMt001dPHEhnN;:VeRJq<R5HL,0*0A
!AIVDM,1,1,,A,H39eMj4U71B=9>043jliq00@9220,0*59
!AIVDM,1,1,,B,13`eRa@P0uPHF4:N@f8QwOw<20Rr,0*44
!AIVDM,1,1,,A,B3`lIah0BP66A4WSgVqkOwjUkP06,0*59
!AIVDM,1,1,,A,13aI9wpP000H=:jN9kW>4?w<08Fb,0*6E
!AIVDM,1,1,,A,13aEOm?P00PHRDRN@ijb6ww<20Rw,0*53
$AODBT,0014.4,f,4.4,M,,*46
!AIVDM,1,1,,A,H3`eQrTT1=30G<c@5qlopP0h412t,0*50
$GPGGA,110738.000,5249.1548,N,00522.4738,E,2,12,0.75,-10.8,M,46.8,M,0000,0000*73
$PSTOE,0000.00,h,0000.00,h*5d
$GPGSA,A,3,01,20,22,30,21,10,11,27,28,32,08,16,1.22,0.75,0.96*0D
$GPGSV,4,1,13,08,78,263,32,21,60,078,41,27,60,140,40,10,55,074,42*76
$GPGSV,4,2,13,11,49,278,37,33,26,205,,20,25,053,28,01,23,260,28*7D
$GPGSV,4,3,13,16,17,187,34,32,15,125,38,22,09,211,32,28,07,332,29*72
$GPGSV,4,4,13,30,05,302,26*48
$GPRMC,110738.000,A,5249.1548,N,00522.4738,E,5.13,107.82,090820,,,D*60
!AIVDM,1,1,,A,139jMt001dPHEhnN;:VeRJq<R5HL,0*0A
!AIVDM,1,1,,A,H39eMj4U71B=9>043jliq00@9220,0*59
!AIVDM,1,1,,B,13`eRa@P0uPHF4:N@f8QwOw<20Rr,0*44
!AIVDM,1,1,,A,B3`lIah0BP66A4WSgVqkOwjUkP06,0*59
!AIVDM,1,1,,A,13aI9wpP000H=:jN9kW>4?w<08Fb,0*6E
$GPRMC,110739.000,A,5249.1543,N,00522.4758,E,5.10,107.49,090820,,,D*68
!AIVDM,1,1,,B,13aDqdPP1U0HCQFN;@Nupgw>08G?,0*7F
!AIVDM,1,1,,A,840UvMPj2d<dtfL<MAu0p@OH4H00,0*20
!AIVDM,1,1,,B,B3`tOBh0=868M77RRs6dswkUoP06,0*71
$IIVWR,028,L,19.5,N,,,,*78
$AOXDR,U,13.0,V,BATT*5c
$IIVLW,1623.1,N,009.67,N*42
$PSTOE,0000.00,h,0000.00,h*5d
$GPRMC,110739.000,A,5249.1543,N,00522.4758,E,5.10,107.49,090820,,,D*68
!AIVDM,1,1,,B,13aDqdPP1U0HCQFN;@Nupgw>08G?,0*7F
!AIVDM,1,1,,A,840UvMPj2d<dtfL<MAu0p@OH4H00,0*20
!AIVDM,1,1,,B,B3`tOBh0=868M77RRs6dswkUoP06,0*71
$IIVWR,028,L,19.5,N,,,,*78
$AOXDR,U,13.0,V,BATT*5c
$IIVLW,1623.1,N,009.67,N*42
$PSTOE,0000.00,h,0000.00,h*5d
$IIVWR,028,L,20.6,N,,,,*71
!AIVDM,1,1,,A,B3aN`p@0A@680G7T81QcUHCTCP06,0*27
$IIMTW,22.2,C*11
!AIVDM,1,1,,B,B3`lPv@0<H60o:7S3Q;5GwkUoP06,0*16
$GPGGA,110740.000,5249.1539,N,00522.4779,E,2,11,0.83,-11.0,M,46.8,M,0000,0000*7C
!AIVDM,1,1,,A,H3`ek9Q<DqT4000000000000000,2*00
$AODBT,0014.2,f,4.3,M,,*47
$GPGSA,A,3,01,20,22,30,21,10,11,27,32,08,16,,1.34,0.83,1.05*02
$GPGSV,4,1,13,08,78,263,34,21,60,078,41,27,60,140,41,10,55,074,42*71
$GPGSV,4,2,13,11,49,278,37,33,26,205,,20,25,053,28,01,23,260,29*7C
$GPGSV,4,3,13,16,16,187,24,32,15,125,39,22,09,211,33,28,07,332,21*7A
$GPGSV,4,4,13,30,05,302,26*48
$GPRMC,110740.000,A,5249.1539,N,00522.4779,E,5.11,106.81,090820,,,D*6C
!AIVDM,1,1,,A,B3`et?P0;@60W57SOlgD7wl5kP06,0*26
!AIVDM,1,1,,A,B3`hoG@08p5uFVWS4j>jWwl5oP06,0*51
$IIVWR,028,L,20.6,N,,,,*71
!AIVDM,1,1,,A,B3aN`p@0A@680G7T81QcUHCTCP06,0*27
$IIMTW,22.2,C*11
!AIVDM,1,1,,B,B3`lPv@0<H60o:7S3Q;5GwkUoP06,0*16
$GPGGA,110740.000,5249.1539,N,00522.4779,E,2,11,0.83,-11.0,M,46.8,M,0000,0000*7C
!AIVDM,1,1,,A,H3`ek9Q<DqT4000000000000000,2*00
$AODBT,0014.2,f,4.3,M,,*47
$GPGSA,A,3,01,20,22,30,21,10,11,27,32,08,16,,1.34,0.83,1.05*02
$GPGSV,4,1,13,08,78,263,34,21,60,078,41,27,60,140,41,10,55,074,42*71
$GPGSV,4,2,13,11,49,278,37,33,26,205,,20,25,053,28,01,23,260,29*7C
$GPGSV,4,3,13,16,16,187,24,32,15,125,39,22,09,211,33,28,07,332,21*7A
$GPGSV,4,4,13,30,05,302,26*48
$GPRMC,110740.000,A,5249.1539,N,00522.4779,E,5.11,106.81,090820,,,D*6C
!AIVDM,1,1,,A,B3`et?P0;@60W57SOlgD7wl5kP06,0*26
!AIVDM,1,1,,A,B3`hoG@08p5uFVWS4j>jWwl5oP06,0*51
!AIVDM,1,1,,A,B3`m1W@08h5wie7Qj;mk?wl1h0Sd,0*19
!AIVDM,1,1,,A,B3aDoih05P5vUJ7SV76gWwl5kP06,0*05
!AIVDM,1,1,,B,13aDpVg000PGH0jN<c77f`;@08Go,0*3A
!AIVDM,1,1,,B,13aPNkOP00PGIGJN<Uo>4?w@2HGq,0*79
$IIVWR,027,L,,N*64
!AIVDM,1,1,,B,B3MAnJP0=p67`C7St?`0wwl5oP06,0*6C
!AIVDM,1,1,,A,B3`j6EP0<p60inWRwuq1swl5oP06,0*20
$IIVWR,024,L,21.3,N,,,,*79
!AIVDM,1,1,,A,H3`ek9TT4I138D0@3klpj01P0300,0*05
!AIVDM,1,1,,B,13aQfwPP00PI8INN@uI>4?w@2D1P,0*07
!AIVDM,1,1,,A,B3aFf=h0:`5nLsWS9vR2swl5oP06,0*02
$AOXDR,U,13.0,V,BATT*5c
!AIVDM,1,1,,A,13`l9H800dPHfahN:V7<W:?B0DDB,0*39
$AODBT,0014.5,f,4.4,M,,*47
!AIVDM,1,1,,A,402E3:1vB4c7`PGEahN7pi7005HL,0*64
$GPGGA,110741.000,5249.1537,N,00522.4802,E,2,11,0.83,-10.9,M,46.8,M,0000,0000*78
!AIVDM,1,1,,A,B3`m1W@08h5wie7Qj;mk?wl1h0Sd,0*19
!AIVDM,1,1,,A,B3aDoih05P5vUJ7SV76gWwl5kP06,0*05
!AIVDM,1,1,,B,13aDpVg000PGH0jN<c77f`;@08Go,0*3A
!AIVDM,1,1,,B,13aPNkOP00PGIGJN<Uo>4?w@2HGq,0*79
$IIVWR,027,L,,N*64
!AIVDM,1,1,,B,B3MAnJP0=p67`C7St?`0wwl5oP06,0*6C
!AIVDM,1,1,,A,B3`j6EP0<p60inWRwuq1swl5oP06,0*20
$IIVWR,024,L,21.3,N,,,,*79
!AIVDM,1,1,,A,H3`ek9TT4I138D0@3klpj01P0300,0*05
!AIVDM,1,1,,B,13aQfwPP00PI8INN@uI>4?w@2D1P,0*07
!AIVDM,1,1,,A,B3aFf=h0:`5nLsWS9vR2swl5oP06,0*02
$AOXDR,U,13.0,V,BATT*5c
!AIVDM,1,1,,A,13`l9H800dPHfahN:V7<W:?B0DDB,0*39
$AODBT,0014.5,f,4.4,M,,*47
!AIVDM,1,1,,A,402E3:1vB4c7`PGEahN7pi7005HL,0*64
$GPGGA,110741.000,5249.1537,N,00522.4802,E,2,11,0.83,-10.9,M,46.8,M,0000,0000*78
$GPGSA,A,3,01,20,22,30,21,10,11,27,32,08,16,,1.34,0.83,1.05*02
$IIVWR,024,L,21.3,N,,,,*79
$GPGSV,4,1,13,08,78,263,32,21,60,078,42,27,60,140,41,10,55,074,30*71
$GPGSV,4,2,13,11,49,278,36,33,26,205,,20,25,053,29,01,23,260,28*7D
$GPGSV,4,3,13,16,16,187,32,32,15,125,38,22,09,211,32,28,07,332,20*7C
$GPGSV,4,4,13,30,05,302,19*44
$GPRMC,110741.000,A,5249.1537,N,00522.4802,E,5.31,105.90,090820,,,D*61
!AIVDM,1,1,,A,H3`m8TTTCBD5WSo@5oqmi01H322t,0*46
!AIVDM,1,1,,A,B39jKG00@86:LNWSCJALowlUoP06,0*66
!AIVDM,1,1,,B,E>jN6<?20W3Ra7bah0a2PP0000009HUO>sAdP00003v010,4*06
$GPGSA,A,3,01,20,22,30,21,10,11,27,32,08,16,,1.34,0.83,1.05*02
$IIVWR,024,L,21.3,N,,,,*79
$GPGSV,4,1,13,08,78,263,32,21,60,078,42,27,60,140,41,10,55,074,30*71
$GPGSV,4,2,13,11,49,278,36,33,26,205,,20,25,053,29,01,23,260,28*7D
$GPGSV,4,3,13,16,16,187,32,32,15,125,38,22,09,211,32,28,07,332,20*7C
$GPGSV,4,4,13,30,05,302,19*44
$GPRMC,110741.000,A,5249.1537,N,00522.4802,E,5.31,105.90,090820,,,D*61
!AIVDM,1,1,,A,H3`m8TTTCBD5WSo@5oqmi01H322t,0*46
!AIVDM,1,1,,A,B39jKG00@86:LNWSCJALowlUoP06,0*66
!AIVDM,1,1,,B,E>jN6<?20W3Ra7bah0a2PP0000009HUO>sAdP00003v010,4*06
!AIVDM,1,1,,A,B3aIhr@07`5wKOWS1bBf3wlUoP06,0*33
$PSTOE,0000.00,h,0000.00,h*5d
$AODBT,0014.5,f,4.4,M,,*47
$AODBT,0014.5,f,4.4,M,,*47
$IIVWR,025,L,21.3,N,,,,*78
$PSTOI,0,0,W*2a
!AIVDM,1,1,,A,B39qMr00:`68u?WRTjN`wwm1l5HL,0*2A
!AIVDM,1,1,,B,B3aNb6006H5r3M7S@fTpSwlUoP06,0*2A
$GPGGA,110742.000,5249.1534,N,00522.4826,E,2,12,0.75,-10.8,M,46.8,M,0000,0000*75
$GPGSA,A,3,01,20,22,30,21,10,11,27,28,32,08,16,1.22,0.75,0.96*0D
$GPGSV,4,1,13,08,78,263,32,21,60,078,42,27,60,140,40,10,55,074,31*71
$AODBT,0014.6,f,4.5,M,,*45
$GPGSV,4,2,13,11,49,278,34,33,26,205,,20,25,053,30,01,23,260,29*76
$GPGSV,4,3,13,16,16,187,32,32,15,125,37,22,09,211,33,28,07,332,27*75
$GPGSV,4,4,13,30,05,302,21*4F
$GPRMC,110742.000,A,5249.1534,N,00522.4826,E,5.27,105.15,090820,,,D*6D
!AIVDM,1,1,,A,H3aN1hi<Dq@u<40000000000000,2*44
$PSTOE,0000.00,h,0000.00,h*5d
!AIVDM,1,1,,A,B3aIhr@07`5wKOWS1bBf3wlUoP06,0*33
$PSTOE,0000.00,h,0000.00,h*5d
$AODBT,0014.5,f,4.4,M,,*47
$AODBT,0014.5,f,4.4,M,,*47
$IIVWR,025,L,21.3,N,,,,*78
$PSTOI,0,0,W*2a
!AIVDM,1,1,,A,B39qMr00:`68u?WRTjN`wwm1l5HL,0*2A
!AIVDM,1,1,,B,B3aNb6006H5r3M7S@fTpSwlUoP06,0*2A
$GPGGA,110742.000,5249.1534,N,00522.4826,E,2,12,0.75,-10.8,M,46.8,M,0000,0000*75
$GPGSA,A,3,01,20,22,30,21,10,11,27,28,32,08,16,1.22,0.75,0.96*0D
$GPGSV,4,1,13,08,78,263,32,21,60,078,42,27,60,140,40,10,55,074,31*71
$AODBT,0014.6,f,4.5,M,,*45
$GPGSV,4,2,13,11,49,278,34,33,26,205,,20,25,053,30,01,23,260,29*76
$GPGSV,4,3,13,16,16,187,32,32,15,125,37,22,09,211,33,28,07,332,27*75
$GPGSV,4,4,13,30,05,302,21*4F
$GPRMC,110742.000,A,5249.1534,N,00522.4826,E,5.27,105.15,090820,,,D*6D
!AIVDM,1,1,,A,H3aN1hi<Dq@u<40000000000000,2*44
$PSTOE,0000.00,h,0000.00,h*5d
!AIVDM,1,1,,B,13aC2`wP00PH=4rN9jLp8OwF2L5R,0*6D
!AIVDM,1,1,,A,B39OfLP0@H6:fwWSGHqB<w?5oP06,0*3E
!AIVDM,1,1,,B,H3`j6ETTC=D4G<@@4pqlp01@1400,0*3F
!AIVDM,1,1,,A,B3aFf:@0;h5tdf7S5Rtwgwm5kP06,0*39
!AIVDM,1,1,,B,H39NomP`4pp4000000000000000,2*29
$IIVLW,1623.1,N,009..0,N,,,,*5d
!AIVDM,1,1,,B,13aFfG`P0pPHwutN;:Sb9gwD25HL,0*2F
$PSTON,350.80,N*08
!AIVDM,1,1,,B,13aC2`wP00PH=4rN9jLp8OwF2L5R,0*6D
!AIVDM,1,1,,A,B39OfLP0@H6:fwWSGHqB<w?5oP06,0*3E
!AIVDM,1,1,,B,H3`j6ETTC=D4G<@@4pqlp01@1400,0*3F
!AIVDM,1,1,,A,B3aFf:@0;h5tdf7S5Rtwgwm5kP06,0*39
!AIVDM,1,1,,B,H39NomP`4pp4000000000000000,2*29
$IIVLW,1623.1,N,009..0,N,,,,*5d
!AIVDM,1,1,,B,13aFfG`P0pPHwutN;:Sb9gwD25HL,0*2F
$PSTON,350.80,N*08
!AIVDM,1,1,,B,13aL>t@P00PH=<6N9kJv4?wF2<1N,0*14
$AODBT,0014.6,f,4.5,M,,*45
$PSTOE,0000.00,h,0000.00,h*5d
$IIVWR,028,L,22.0,N,,,,*75
$GPGGA,110743.000,5249.1530,N,00522.4850,E,2,12,0.75,-10.7,M,46.8,M,0000,0000*7E
$GPGSA,A,3,01,20,22,30,21,10,11,27,28,32,08,16,1.22,0.75,0.96*0D
!AIVDM,1,1,,A,B3`hql000868prWT5SoQ3wmQnDuJ,0*70
$GPGSV,4,1,13,08,78,263,25,21,60,078,42,27,60,140,40,10,55,074,40*71
$GPGSV,4,2,13,11,49,278,35,20,25,053,29,01,23,260,28,16,16,187,31*71
$GPGSV,4,3,13,32,15,125,37,22,09,211,33,40,09,115,,28,07,332,28*7D
$IIMTW,22.3,C*10
$GPGSV,4,4,13,30,05,302,23*4D
$GPRMC,110743.000,A,5249.1530,N,00522.4850,E,5.32,104.64,090820,,,D*6A
!AIVDM,1,1,,B,H3aC3BTUCBD5<:k@4qqkm01P031t,0*74
!AIVDM,1,1,,A,H3`e>g0lU=A84h0000000000000,2*22
!AIVDM,1,1,,B,13aL>t@P00PH=<6N9kJv4?wF2<1N,0*14
$AODBT,0014.6,f,4.5,M,,*45
$PSTOE,0000.00,h,0000.00,h*5d
$IIVWR,028,L,22.0,N,,,,*75
$GPGGA,110743.000,5249.1530,N,00522.4850,E,2,12,0.75,-10.7,M,46.8,M,0000,0000*7E
$GPGSA,A,3,01,20,22,30,21,10,11,27,28,32,08,16,1.22,0.75,0.96*0D
!AIVDM,1,1,,A,B3`hql000868prWT5SoQ3wmQnDuJ,0*70
$GPGSV,4,1,13,08,78,263,25,21,60,078,42,27,60,140,40,10,55,074,40*71
$GPGSV,4,2,13,11,49,278,35,20,25,053,29,01,23,260,28,16,16,187,31*71
$GPGSV,4,3,13,32,15,125,37,22,09,211,33,40,09,115,,28,07,332,28*7D
$IIMTW,22.3,C*10
$GPGSV,4,4,13,30,05,302,23*4D
$GPRMC,110743.000,A,5249.1530,N,00522.4850,E,5.32,104.64,090820,,,D*6A
!AIVDM,1,1,,B,H3aC3BTUCBD5<:k@4qqkm01P031t,0*74
!AIVDM,1,1,,A,H3`e>g0lU=A84h0000000000000,2*22
!AIVDM,1,1,,B,B3`dtv00A@66;7WShGudowmUkP06,0*78
$AODBT,0014.6,f,4.5,M,,*45
$AODBT,0014.3,f,4.4,M,,*41
!AIVDM,1,1,,A,13aGrmhP0;PH;P<N9eK9<OwH2L2;,0*3A
$PSTOE,0000.00,h,0000.00,h*5d
!AIVDM,1,1,,A,B3aFg4007`64O37Sov>HgwmUoP06,0*10
$IIVLW,1623.1,N,009.68,N*4d
$IIVWR,024,L,22.0,N,,,,*79
$GPGGA,110744.000,5249.1527,N,00522.4877,E,2,12,0.75,-10.7,M,46.8,M,0000,0000*7A
$GPGSA,A,3,01,20,22,30,21,10,11,27,28,32,08,16,1.22,0.75,0.96*0D
!AIVDM,1,1,,B,B3`dtv00A@66;7WShGudowmUkP06,0*78
$AODBT,0014.6,f,4.5,M,,*45
$AODBT,0014.3,f,4.4,M,,*41
!AIVDM,1,1,,A,13aGrmhP0;PH;P<N9eK9<OwH2L2;,0*3A
$PSTOE,0000.00,h,0000.00,h*5d
!AIVDM,1,1,,A,B3aFg4007`64O37Sov>HgwmUoP06,0*10
$IIVLW,1623.1,N,009.68,N*4d
$IIVWR,024,L,22.0,N,,,,*79
$GPGGA,110744.000,5249.1527,N,00522.4877,E,2,12,0.75,-10.7,M,46.8,M,0000,0000*7A
$GPGSA,A,3,01,20,22,30,21,10,11,27,28,32,08,16,1.22,0.75,0.96*0D
!AIVDM,1,1,,B,13a2KL?000PGG7nN?hWh01sF2@Is,0*2F
$GPGSV,4,1,13,08,78,263,26,21,60,078,42,27,60,140,41,10,55,074,40*73
$AOXDR,U,13.0,V,BATT*5c
$GPGSV,4,2,13,11,49,278,35,20,25,053,30,01,23,260,29,16,16,187,30*79
$GPGSV,4,3,13,32,15,125,37,22,09,211,32,40,09,115,,28,07,332,26*72
$GPGSV,4,4,13,30,05,302,24*4A
$GPRMC,110744.000,A,5249.1527,N,00522.4877,E,5.40,104.22,090820,,,D*69
!AIVDM,2,1,0,B,53aGurD000010W?7WT1I8uELE`4p@000000000152P441t0Ht00000000000,0*1A
!AIVDM,2,2,0,B,00000000000,2*27
!AIVDM,1,1,,B,B39URw00;P67N>7Tl3Ei7wmUkP06,0*52
!AIVDM,1,1,,B,B3`lP;@0>p670BWRpSQ`Kwn1lD2A,0*51
!AIVDM,1,1,,B,13aLn>HP0<0Gf@RN@?O`<OwF0<<V,0*77
!AIVDM,1,1,,A,13aFgjgP0SPHw;vN<3h9BOwH20RC,0*49
!AIVDM,1,1,,B,B3aIk8@0>@670LWT89DD7wn5kP06,0*78
!AIVDM,1,1,,B,13a2KL?000PGG7nN?hWh01sF2@Is,0*2F
$GPGSV,4,1,13,08,78,263,26,21,60,078,42,27,60,140,41,10,55,074,40*73
$AOXDR,U,13.0,V,BATT*5c
$GPGSV,4,2,13,11,49,278,35,20,25,053,30,01,23,260,29,16,16,187,30*79
$GPGSV,4,3,13,32,15,125,37,22,09,211,32,40,09,115,,28,07,332,26*72
$GPGSV,4,4,13,30,05,302,24*4A
$GPRMC,110744.000,A,5249.1527,N,00522.4877,E,5.40,104.22,090820,,,D*69
!AIVDM,2,1,0,B,53aGurD000010W?7WT1I8uELE`4p@000000000152P441t0Ht00000000000,0*1A
!AIVDM,2,2,0,B,00000000000,2*27
!AIVDM,1,1,,B,B39URw00;P67N>7Tl3Ei7wmUkP06,0*52
!AIVDM,1,1,,B,B3`lP;@0>p670BWRpSQ`Kwn1lD2A,0*51
!AIVDM,1,1,,B,13aLn>HP0<0Gf@RN@?O`<OwF0<<V,0*77
!AIVDM,1,1,,A,13aFgjgP0SPHw;vN<3h9BOwH20RC,0*49
!AIVDM,1,1,,B,B3aIk8@0>@670LWT89DD7wn5kP06,0*78
!AIVDM,1,1,,B,13`je9@u1HPHIc0N==Of1?wH2D22,0*1F
$IIVWR,028,L,22.0,N,,,,*75
!AIVDM,1,1,,A,B3aC3BP0;`65V87RsdUlSwn1l8JE,0*39
$AODBT,0013.9,f,4.2,M,,*4a
!AIVDM,1,1,,B,13aGtM0P00PI3BnNBGS>4?wH2<2e,0*15
!AIVDM,1,1,,A,13aI<LpP0nPH8w>N?adm7gwJ20RS,0*1C
!AIVDM,1,1,,A,13aENJOP0MPHht8N:kfl`wwH20RE,0*72
!AIVDM,1,1,,B,13`nvbG000PG2tPNBTdo?lEF0<1f,0*13
$GPGGA,110745.000,5249.1525,N,00522.4902,E,2,11,0.83,-10.6,M,46.8,M,0000,0000*71
$GPGSA,A,3,01,20,22,30,21,10,11,27,32,08,16,,1.34,0.83,1.05*02
$AODBT,0014.0,f,4.3,M,,*45
!AIVDM,1,1,,B,33aFesOP000HB`VN:D@v4?wJ02lA,0*18
$GPGSV,4,1,13,08,78,263,28,27,60,140,42,21,59,078,42,10,55,074,41*75
$GPGSV,4,2,13,11,49,278,35,20,25,053,31,01,23,260,29,16,16,187,30*78
$GPGSV,4,3,13,32,15,125,37,22,09,211,32,40,09,115,,28,07,332,25*71
$IIVWR,027,L,21.5,N,,,,*7c
$GPGSV,4,4,13,30,05,302,24*4A
$GPRMC,110745.000,A,5249.1525,N,00522.4902,E,5.37,103.59,090820,,,D*62
!AIVDM,1,1,,B,13aGEk8P0nPH<S2N;TIm`gwJ2<2A,0*1E
!AIVDM,1,1,,B,13`fJDhPAM0EpUPND2P07P7F05HL,0*54
!AIVDM,1,1,,A,33`p;dU000PJ9PTN?4EEro;H0Dk:,0*25
!AIVDM,1,1,,A,B3aIgc@0?h6=GvWRk:w>wwn5kP06,0*1D
!AIVDM,1,1,,B,13`je9@u1HPHIc0N==Of1?wH2D22,0*1F
$IIVWR,028,L,22.0,N,,,,*75
!AIVDM,1,1,,A,B3aC3BP0;`65V87RsdUlSwn1l8JE,0*39
$AODBT,0013.9,f,4.2,M,,*4a
!AIVDM,1,1,,B,13aGtM0P00PI3BnNBGS>4?wH2<2e,0*15
!AIVDM,1,1,,A,13aI<LpP0nPH8w>N?adm7gwJ20RS,0*1C
!AIVDM,1,1,,A,13aENJOP0MPHht8N:kfl`wwH20RE,0*72
!AIVDM,1,1,,B,13`nvbG000PG2tPNBTdo?lEF0<1f,0*13
$GPGGA,110745.000,5249.1525,N,00522.4902,E,2,11,0.83,-10.6,M,46.8,M,0000,0000*71
$GPGSA,A,3,01,20,22,30,21,10,11,27,32,08,16,,1.34,0.83,1.05*02
$AODBT,0014.0,f,4.3,M,,*45
!AIVDM,1,1,,B,33aFesOP000HB`VN:D@v4?wJ02lA,0*18
$GPGSV,4,1,13,08,78,263,28,27,60,140,42,21,59,078,42,10,55,074,41*75
$GPGSV,4,2,13,11,49,278,35,20,25,053,31,01,23,260,29,16,16,187,30*78
$GPGSV,4,3,13,32,15,125,37,22,09,211,32,40,09,115,,28,07,332,25*71
$IIVWR,027,L,21.5,N,,,,*7c
$GPGSV,4,4,13,30,05,302,24*4A
$GPRMC,110745.000,A,5249.1525,N,00522.4902,E,5.37,103.59,090820,,,D*62
!AIVDM,1,1,,B,13aGEk8P0nPH<S2N;TIm`gwJ2<2A,0*1E
!AIVDM,1,1,,B,13`fJDhPAM0EpUPND2P07P7F05HL,0*54
!AIVDM,1,1,,A,33`p;dU000PJ9PTN?4EEro;H0Dk:,0*25
!AIVDM,1,1,,A,B3aIgc@0?h6=GvWRk:w>wwn5kP06,0*1D
!AIVDM,1,1,,A,13`nuLW000PG2fPNBWe005kH0D5L,0*42
!AIVDM,1,1,,B,B3aC2P00=@6=TN7RfMAOCwnUkP06,0*0A
!AIVDM,1,1,,B,13aQdgp01MPEr<rNDikVbc360L<O,0*54
$AODBT,0013.8,f,4.2,M,,*4b
$PSTOA,0,*69
!AIVDM,1,1,,A,B3`oU500?P67ap7SPkENgwo5oP06,0*60
$AODBT,0013.8,f,4.2,M,,*4b
!AIVDM,1,1,,A,13`nuLW000PG2fPNBWe005kH0D5L,0*42
!AIVDM,1,1,,B,B3aC2P00=@6=TN7RfMAOCwnUkP06,0*0A
!AIVDM,1,1,,B,13aQdgp01MPEr<rNDikVbc360L<O,0*54
$AODBT,0013.8,f,4.2,M,,*4b
$PSTOA,0,*69
!AIVDM,1,1,,A,B3`oU500?P67ap7SPkENgwo5oP06,0*60
$AODBT,0013.8,f,4.2,M,,*4b
$IIVWR,026,L,21.3,N,,,,*7b
$GPGGA,110746.000,5249.1523,N,00522.4926,E,2,12,0.75,-10.6,M,46.8,M,0000,0000*78
!AIVDM,1,1,,B,83aGur@j2d<t=L<dt@N0JhO50000,0*00
$GPGSA,A,3,01,20,22,30,21,10,11,27,28,32,08,16,1.22,0.75,0.96*0D
$GPGSV,4,1,13,08,78,263,29,27,60,140,42,21,59,078,42,10,55,074,40*75
$GPGSV,4,2,13,11,49,278,34,20,25,053,30,01,23,260,28,16,16,187,31*78
$GPGSV,4,3,13,32,15,125,37,22,09,211,31,40,09,115,,28,07,332,24*73
$GPGSV,4,4,13,30,05,302,24*4A
$GPRMC,110746.000,A,5249.1523,N,00522.4926,E,5.31,103.78,090820,,,D*64
!AIVDM,1,1,,A,B3aI:5P0?p67>QWRTMI4swo5oP06,0*37
!AIVDM,1,1,,B,33`p;dU000PJ9PTN?4EA<7;J0Dhb,0*6D
!AIVDM,1,1,,A,B3aGtg@0>H6:aCWSR4M2wwo5oP06,0*34
!AIVDM,1,1,,B,B3aFdSP0>H63MK7TEgkL7wo5oP06,0*14
!AIVDM,1,1,,B,E>jN6U?1SnPP00000000000000009@@d>uwrP00003v010,4*19
!AIVDM,1,1,,B,B3aNcFh07061LRWT6Q@?cwo5kP06,0*70
$IIVWR,026,L,21.3,N,,,,*7b
$GPGGA,110746.000,5249.1523,N,00522.4926,E,2,12,0.75,-10.6,M,46.8,M,0000,0000*78
!AIVDM,1,1,,B,83aGur@j2d<t=L<dt@N0JhO50000,0*00
$GPGSA,A,3,01,20,22,30,21,10,11,27,28,32,08,16,1.22,0.75,0.96*0D
$GPGSV,4,1,13,08,78,263,29,27,60,140,42,21,59,078,42,10,55,074,40*75
$GPGSV,4,2,13,11,49,278,34,20,25,053,30,01,23,260,28,16,16,187,31*78
$GPGSV,4,3,13,32,15,125,37,22,09,211,31,40,09,115,,28,07,332,24*73
$GPGSV,4,4,13,30,05,302,24*4A
$GPRMC,110746.000,A,5249.1523,N,00522.4926,E,5.31,103.78,090820,,,D*64
!AIVDM,1,1,,A,B3aI:5P0?p67>QWRTMI4swo5oP06,0*37
!AIVDM,1,1,,B,33`p;dU000PJ9PTN?4EA<7;J0Dhb,0*6D
!AIVDM,1,1,,A,B3aGtg@0>H6:aCWSR4M2wwo5oP06,0*34
!AIVDM,1,1,,B,B3aFdSP0>H63MK7TEgkL7wo5oP06,0*14
!AIVDM,1,1,,B,E>jN6U?1SnPP00000000000000009@@d>uwrP00003v010,4*19
!AIVDM,1,1,,B,B3aNcFh07061LRWT6Q@?cwo5kP06,0*70
!AIVDM,1,1,,A,B3`f;GP0>h6DNM7RbfP=3wo5kP06,0*45
$IIVWR,025,L,20.7,N,,,,*7d
$PSTOE,0000.00,h,0000.00,h*5d
$AODBT,0013.8,f,4.2,M,,*4b
$IIVWR,024,L,20.7,N,,,,*7c
!AIVDM,1,1,,B,B39nRu00:`64;iWSBmcOowo1n1Ki,0*12
$PSTON,350.81,N*09
$GPGGA,110747.000,5249.1519,N,00522.4949,E,2,11,0.83,-10.6,M,46.8,M,0000,0000*73
$GPGSA,A,3,01,20,22,30,21,10,11,27,32,08,16,,1.34,0.83,1.05*02
$GPGSV,4,1,13,08,78,263,37,27,60,140,42,21,59,078,35,10,55,074,38*75
$AODBT,0014.5,f,4.4,M,,*47
$GPGSV,4,2,13,11,49,278,33,20,25,053,29,01,23,260,28,16,16,187,30*76
$GPGSV,4,3,13,32,15,125,36,22,09,211,32,40,09,115,,28,07,332,22*77
$GPGSV,4,4,13,30,05,302,22*4C
!AIVDM,1,1,,A,13`i<;PP0cPHARNN:t3Ue?wN20RW,0*3E
$GPRMC,110747.000,A,5249.1519,N,00522.4949,E,5.32,104.95,090820,,,D*62
$PSTOE,0000.00,h,0000.00,h*5d
!AIVDM,1,1,,A,B3`f;GP0>h6DNM7RbfP=3wo5kP06,0*45
$IIVWR,025,L,20.7,N,,,,*7d
$PSTOE,0000.00,h,0000.00,h*5d
$AODBT,0013.8,f,4.2,M,,*4b
$IIVWR,024,L,20.7,N,,,,*7c
!AIVDM,1,1,,B,B39nRu00:`64;iWSBmcOowo1n1Ki,0*12
$PSTON,350.81,N*09
$GPGGA,110747.000,5249.1519,N,00522.4949,E,2,11,0.83,-10.6,M,46.8,M,0000,0000*73
$GPGSA,A,3,01,20,22,30,21,10,11,27,32,08,16,,1.34,0.83,1.05*02
$GPGSV,4,1,13,08,78,263,37,27,60,140,42,21,59,078,35,10,55,074,38*75
$AODBT,0014.5,f,4.4,M,,*47
$GPGSV,4,2,13,11,49,278,33,20,25,053,29,01,23,260,28,16,16,187,30*76
$GPGSV,4,3,13,32,15,125,36,22,09,211,32,40,09,115,,28,07,332,22*77
$GPGSV,4,4,13,30,05,302,22*4C
!AIVDM,1,1,,A,13`i<;PP0cPHARNN:t3Ue?wN20RW,0*3E
$GPRMC,110747.000,A,5249.1519,N,00522.4949,E,5.32,104.95,090820,,,D*62
$PSTOE,0000.00,h,0000.00,h*5d
!AIVDM,1,1,,A,13`e=?HP0WPGtH2N<9eTHOwN2D2B,0*07
$IIVLW,1623.1,N,009.68,N*4d
!AIVDM,1,1,,B,13aEP6?P10PH`lpN;n8MjwwN28Ko,0*0B
!AIVDM,1,1,,B,13aENr@P050HS86N@Np9eOwN0<1U,0*7D
!AIVDM,1,1,,B,13aL?egP000H=tjN9me>4?wN05HL,0*4E
!AIVDM,1,1,,B,B3`enKh0?H67`6WS`>u:wwoUoP06,0*1A
!AIVDM,1,1,,B,13`qJv@P00PHfr<NBp<f4?wN2@L3,0*33
!AIVDM,1,1,,B,B3`i;ph0;P612@WR:WJ6gwoUkP06,0*53
$IIVWR,024,L,20.7,N,,,,*7c
!AIVDM,1,1,,A,13`e=?HP0WPGtH2N<9eTHOwN2D2B,0*07
$IIVLW,1623.1,N,009.68,N*4d
!AIVDM,1,1,,B,13aEP6?P10PH`lpN;n8MjwwN28Ko,0*0B
!AIVDM,1,1,,B,13aENr@P050HS86N@Np9eOwN0<1U,0*7D
!AIVDM,1,1,,B,13aL?egP000H=tjN9me>4?wN05HL,0*4E
!AIVDM,1,1,,B,B3`enKh0?H67`6WS`>u:wwoUoP06,0*1A
!AIVDM,1,1,,B,13`qJv@P00PHfr<NBp<f4?wN2@L3,0*33
!AIVDM,1,1,,B,B3`i;ph0;P612@WR:WJ6gwoUkP06,0*53
$IIVWR,024,L,20.7,N,,,,*7c
$AOXDR,U,13.0,0,BATT*3a
$IIMTW,22.3,C*10
!AIVDM,1,1,,A,B39J29P0A868IW7SRoMLcwoQn0R1,0*69
!AIVDM,1,1,,A,B3a4MIh0<@64jP7TeMAncwo1h5HL,0*6D
$IIVWR,029,L,20.7,N,,,,*71
!AIVDM,1,1,,B,13aL>p8P0ePH4;pN;wg=AgwP28L?,0*3E
!AIVDM,1,1,,A,B3aNa<h0=`6:QT7SImEDKwp5oP06,0*28
$GPGGA,110748.000,5249.1514,N,00522.4971,E,2,11,0.85,-10.7,M,46.8,M,0000,0000*7D
$GPGSA,A,3,01,22,30,21,10,11,27,28,32,08,16,,1.32,0.85,1.01*0E
$GPGSV,4,1,13,08,78,263,37,27,60,140,43,21,59,078,27,10,55,074,38*77
$GPGSV,4,2,13,11,49,278,34,20,25,053,27,01,23,260,27,16,16,187,30*70
$GPGSV,4,3,13,32,15,125,37,22,09,211,34,40,09,115,,28,07,332,23*71
$GPGSV,4,4,13,30,05,302,20*4E
$GPRMC,110748.000,A,5249.1514,N,00522.4971,E,5.34,106.76,090820,,,D*62
!AIVDM,1,1,,A,B39wqKP078625:WSqPL=Wwp5oP06,0*4F
$AOXDR,U,13.0,0,BATT*3a
$IIMTW,22.3,C*10
!AIVDM,1,1,,A,B39J29P0A868IW7SRoMLcwoQn0R1,0*69
!AIVDM,1,1,,A,B3a4MIh0<@64jP7TeMAncwo1h5HL,0*6D
$IIVWR,029,L,20.7,N,,,,*71
!AIVDM,1,1,,B,13aL>p8P0ePH4;pN;wg=AgwP28L?,0*3E
!AIVDM,1,1,,A,B3aNa<h0=`6:QT7SImEDKwp5oP06,0*28
$GPGGA,110748.000,5249.1514,N,00522.4971,E,2,11,0.85,-10.7,M,46.8,M,0000,0000*7D
$GPGSA,A,3,01,22,30,21,10,11,27,28,32,08,16,,1.32,0.85,1.01*0E
$GPGSV,4,1,13,08,78,263,37,27,60,140,43,21,59,078,27,10,55,074,38*77
$GPGSV,4,2,13,11,49,278,34,20,25,053,27,01,23,260,27,16,16,187,30*70
$GPGSV,4,3,13,32,15,125,37,22,09,211,34,40,09,115,,28,07,332,23*71
$GPGSV,4,4,13,30,05,302,20*4E
$GPRMC,110748.000,A,5249.1514,N,00522.4971,E,5.34,106.76,090820,,,D*62
!AIVDM,1,1,,A,B39wqKP078625:WSqPL=Wwp5oP06,0*4F
!AIVDM,2,1,1,A,53`nuL`2FFna0@Tf221M;;7:18DTr1LThhDn220N2P4525?90511C`3iEQD`,0*73
!AIVDM,2,2,1,A,88888888880,2*25
!AIVDM,1,1,,A,13aDqdPP1U0HCPFN;AMupOwP0<2G,0*30
!AIVDM,1,1,,B,H3`em3@LhtD@000000000000000,2*23
!AIVDM,1,1,,A,B39rhVP0=H62Te7SLQr03wp5oP06,0*01
$IIVWR,025,L,20.6,N,,,,*7c
$AODBT,0014.4,f,4.4,M,,*46
!AIVDM,1,1,,A,H3aJJ6PM8ETPuDp@00000000000,2*5D
!AIVDM,1,1,,B,13aI9wpP000H=;:N9kWN4?wR0<7w,0*42
$IIVLW,1623.1,N,009.68,N*4d
$AOXDR,U,13.0,V,BATT*5c
$IIVWR,028,L,20.6,N,,,,*71
!AIVDM,2,1,1,A,53`nuL`2FFna0@Tf221M;;7:18DTr1LThhDn220N2P4525?90511C`3iEQD`,0*73
!AIVDM,2,2,1,A,88888888880,2*25
!AIVDM,1,1,,A,13aDqdPP1U0HCPFN;AMupOwP0<2G,0*30
!AIVDM,1,1,,B,H3`em3@LhtD@000000000000000,2*23
!AIVDM,1,1,,A,B39rhVP0=H62Te7SLQr03wp5oP06,0*01
$IIVWR,025,L,20.6,N,,,,*7c
$AODBT,0014.4,f,4.4,M,,*46
!AIVDM,1,1,,A,H3aJJ6PM8ETPuDp@00000000000,2*5D
!AIVDM,1,1,,B,13aI9wpP000H=;:N9kWN4?wR0<7w,0*42
$IIVLW,1623.1,N,009.68,N*4d
$AOXDR,U,13.0,V,BATT*5c
$IIVWR,028,L,20.6,N,,,,*71
$GPGGA,110749.000,5249.1508,N,00522.4994,E,2,11,0.85,-10.7,M,46.8,M,0000,0000*7A
$GPGSA,A,3,01,22,30,21,10,11,27,28,32,08,16,,1.32,0.85,1.01*0E
$GPGSV,4,1,13,08,78,263,36,27,60,140,43,21,59,078,29,10,55,074,38*78
$GPGSV,4,2,13,11,49,278,35,20,25,053,19,01,23,260,34,16,16,187,31*7F
$AODBT,0014.5,f,4.4,M,,*47
$GPGSV,4,3,13,32,15,125,36,22,09,211,35,40,09,115,26,28,07,332,23*75
$GPGSV,4,4,13,30,05,302,20*4E
!AIVDM,1,1,,B,B3aFgc00<865ipWSM45kWwpUoP06,0*76
$GPRMC,110749.000,A,5249.1508,N,00522.4994,E,5.35,108.16,090820,,,D*6C
!AIVDM,1,1,,A,B3aBK<@0A@67TEWRUFtq3wpUoP06,0*29
!AIVDM,1,1,,B,13`i@GhP00PG2EjNBfnN4?wR2@M7,0*77
!AIVDM,1,1,,A,B3`en800A86?<lWRoREHGwpUoP06,0*3D
$GPGGA,110749.000,5249.1508,N,00522.4994,E,2,11,0.85,-10.7,M,46.8,M,0000,0000*7A
$GPGSA,A,3,01,22,30,21,10,11,27,28,32,08,16,,1.32,0.85,1.01*0E
$GPGSV,4,1,13,08,78,263,36,27,60,140,43,21,59,078,29,10,55,074,38*78
$GPGSV,4,2,13,11,49,278,35,20,25,053,19,01,23,260,34,16,16,187,31*7F
$AODBT,0014.5,f,4.4,M,,*47
$GPGSV,4,3,13,32,15,125,36,22,09,211,35,40,09,115,26,28,07,332,23*75
$GPGSV,4,4,13,30,05,302,20*4E
!AIVDM,1,1,,B,B3aFgc00<865ipWSM45kWwpUoP06,0*76
$GPRMC,110749.000,A,5249.1508,N,00522.4994,E,5.35,108.16,090820,,,D*6C
!AIVDM,1,1,,A,B3aBK<@0A@67TEWRUFtq3wpUoP06,0*29
!AIVDM,1,1,,B,13`i@GhP00PG2EjNBfnN4?wR2@M7,0*77
!AIVDM,1,1,,A,B3`en800A86?<lWRoREHGwpUoP06,0*3D
!AIVDM,1,1,,B,13aGuPpP0SPHLg>N:G4bp?wR20S?,0*0B
$IIVWR,029,L,20.6,N,,,,*70
!AIVDM,1,1,,A,B3`snD00>p5rNo7SOdn:wwpUoP06,0*41
!AIVDM,1,1,,B,B3aD@rP0>H612l7S3qmCkwq5oP06,0*65
!AIVDM,1,1,,B,B39E>400:p68QAWT5oTR;wq5oP06,0*18
$IIVWR,028,L,20.6,N,,,,*71
$GPGGA,110750.000,5249.1504,N,00522.5018,E,2,12,0.75,-10.8,M,46.8,M,0000,0000*71
$GPGSA,A,3,01,20,22,30,21,10,11,27,28,32,08,16,1.22,0.75,0.96*0D
$GPGSV,4,1,13,08,78,263,23,27,60,140,42,21,59,078,38,10,55,074,38*7D
$GPGSV,4,2,13,11,49,278,35,20,25,053,21,01,23,260,33,16,16,187,32*70
$GPGSV,4,3,13,32,15,125,38,22,09,211,28,40,09,115,29,28,07,332,23*78
$PSTON,350.82,N*0a
$GPGSV,4,4,13,30,05,302,20*4E
$GPRMC,110750.000,A,5249.1504,N,00522.5018,E,5.34,107.45,090820,,,D*6C
!AIVDM,1,1,,B,13aGuPpP0SPHLg>N:G4bp?wR20S?,0*0B
$IIVWR,029,L,20.6,N,,,,*70
!AIVDM,1,1,,A,B3`snD00>p5rNo7SOdn:wwpUoP06,0*41
!AIVDM,1,1,,B,B3aD@rP0>H612l7S3qmCkwq5oP06,0*65
!AIVDM,1,1,,B,B39E>400:p68QAWT5oTR;wq5oP06,0*18
$IIVWR,028,L,20.6,N,,,,*71
$GPGGA,110750.000,5249.1504,N,00522.5018,E,2,12,0.75,-10.8,M,46.8,M,0000,0000*71
$GPGSA,A,3,01,20,22,30,21,10,11,27,28,32,08,16,1.22,0.75,0.96*0D
$GPGSV,4,1,13,08,78,263,23,27,60,140,42,21,59,078,38,10,55,074,38*7D
$GPGSV,4,2,13,11,49,278,35,20,25,053,21,01,23,260,33,16,16,187,32*70
$GPGSV,4,3,13,32,15,125,38,22,09,211,28,40,09,115,29,28,07,332,23*78
$PSTON,350.82,N*0a
$GPGSV,4,4,13,30,05,302,20*4E
$GPRMC,110750.000,A,5249.1504,N,00522.5018,E,5.34,107.45,090820,,,D*6C
!AIVDM,1,1,,A,H3aJJ6TT>1F93?0@4oikj01P1310,0*67
!AIVDM,1,1,,B,B3`iq9001@5oFN7S6H4?gwq5oP06,0*4A
!AIVDM,1,1,,A,B39dfjP0<86;63WRMbfq7wq5oP06,0*6A
!AIVDM,1,1,,A,B3`h@vP0?P62re7Swderkwq5kP06,0*70
!AIVDM,1,1,,B,B3aN2aP0605r59WSUwCL7wq5kP06,0*15
$PSTOE,0000.00,h,0000.00,h*5d
$IIVLW,1623.20.9,N,,,,*3e
$AODBT,0014.2,f,4.3,M,,*47
!AIVDM,1,1,,A,H3aJJ6TT>1F93?0@4oikj01P1310,0*67
!AIVDM,1,1,,B,B3`iq9001@5oFN7S6H4?gwq5oP06,0*4A
!AIVDM,1,1,,A,B39dfjP0<86;63WRMbfq7wq5oP06,0*6A
!AIVDM,1,1,,A,B3`h@vP0?P62re7Swderkwq5kP06,0*70
!AIVDM,1,1,,B,B3aN2aP0605r59WSUwCL7wq5kP06,0*15
$PSTOE,0000.00,h,0000.00,h*5d
$IIVLW,1623.20.9,N,,,,*3e
$AODBT,0014.2,f,4.3,M,,*47
!AIVDM,1,1,,A,H39J29TTCBD4gW?41kplj010431t,0*30
!AIVDM,1,1,,A,B5NUTTP0>p63oDWRLi@13wqUoP06,0*42
!AIVDM,1,1,,B,B39Q@fP07@630LWSh5T;t;IQn021,0*48
!AIVDM,1,1,,B,H39Q@fPADLtpN22222222222220,2*43
!AIVDM,1,1,,B,13aGrm@P0qPH@ulN:1tpnww`20T0,0*27
$AODBT,0015.3,f,4.7,M,,*43
$PSTOE,0000.00,h,0000.00,h*5d
$PSTON,350.82,N*0a
$GPGGA,110752.000,5249.1495,N,00522.5065,E,2,12,0.75,-10.6,M,46.8,M,0000,0000*7E
!AIVDM,1,1,,A,B39wV@008`5tk`7Sh0G7Swr5oP06,0*0B
$GPGSA,A,3,01,20,22,30,21,10,11,27,28,32,08,16,1.22,0.75,0.96*0D
$GPGSV,4,1,13,08,78,263,23,27,60,140,42,21,59,078,38,10,55,074,32*77
$GPGSV,4,2,13,11,49,278,36,20,25,053,22,01,23,260,34,16,16,187,30*75
!AIVDM,1,1,,A,H39J29TTCBD4gW?41kplj010431t,0*30
!AIVDM,1,1,,A,B5NUTTP0>p63oDWRLi@13wqUoP06,0*42
!AIVDM,1,1,,B,B39Q@fP07@630LWSh5T;t;IQn021,0*48
!AIVDM,1,1,,B,H39Q@fPADLtpN22222222222220,2*43
!AIVDM,1,1,,B,13aGrm@P0qPH@ulN:1tpnww`20T0,0*27
$AODBT,0015.3,f,4.7,M,,*43
$PSTOE,0000.00,h,0000.00,h*5d
$PSTON,350.82,N*0a
$GPGGA,110752.000,5249.1495,N,00522.5065,E,2,12,0.75,-10.6,M,46.8,M,0000,0000*7E
!AIVDM,1,1,,A,B39wV@008`5tk`7Sh0G7Swr5oP06,0*0B
$GPGSA,A,3,01,20,22,30,21,10,11,27,28,32,08,16,1.22,0.75,0.96*0D
$GPGSV,4,1,13,08,78,263,23,27,60,140,42,21,59,078,38,10,55,074,32*77
$GPGSV,4,2,13,11,49,278,36,20,25,053,22,01,23,260,34,16,16,187,30*75
!AIVDM,1,1,,A,13c5FF7P00PH?<>N9sQv4?wb2@OJ,0*7A
!AIVDM,1,1,,A,H3`e>g4TC=D4G5@@4jnlo00`0020,0*4C
!AIVDM,1,1,,B,B39qQA00<h6AISWSOwR:owrUoP06,0*67
!AIVDM,1,1,,B,13aFgjgP0SPHw8BN<3Ta>?wb25HL,0*2F
!AIVDM,1,1,,A,B3aPPn00=@62p2WTG7@43wrUoP06,0*3E
!AIVDM,1,1,,B,B39uVeP0Ah5soW7ST;0TwwrUkP06,0*69
!AIVDM,1,1,,B,B39w>7009865i`WSBHAl;wrUoP06,0*69
!AIVDM,1,1,,B,B39uHaP0006;hWWTfkg47wrUkP06,0*64
!AIVDM,1,1,,A,E>jMjbQRHq1000000000000000006LV@?T<mPI3;;;v000,4*4C
!AIVDM,1,1,,A,H3`eHgh858T85<0000000000000,2*7D
!AIVDM,1,1,,B,H3`iq90mDU8LPD4h00000000000,2*5D
$PSTON,350.82,N*0a
!AIVDM,1,1,,B,B3`i@Eh0<H5llrWTQ96BKwrQl<3V,0*06
$AODBT,0014.2,f,4.3,M,,*47
!AIVDM,1,1,,A,B39OfBP0=06?aE7RCUu5owrUkP06,0*74
$AODBT,0014.2,f,4.3,M,,*47
!AIVDM,1,1,,A,13c5FF7P00PH?<>N9sQv4?wb2@OJ,0*7A
!AIVDM,1,1,,A,H3`e>g4TC=D4G5@@4jnlo00`0020,0*4C
!AIVDM,1,1,,B,B39qQA00<h6AISWSOwR:owrUoP06,0*67
!AIVDM,1,1,,B,13aFgjgP0SPHw8BN<3Ta>?wb25HL,0*2F
!AIVDM,1,1,,A,B3aPPn00=@62p2WTG7@43wrUoP06,0*3E
!AIVDM,1,1,,B,B39uVeP0Ah5soW7ST;0TwwrUkP06,0*69
!AIVDM,1,1,,B,B39w>7009865i`WSBHAl;wrUoP06,0*69
!AIVDM,1,1,,B,B39uHaP0006;hWWTfkg47wrUkP06,0*64
!AIVDM,1,1,,A,E>jMjbQRHq1000000000000000006LV@?T<mPI3;;;v000,4*4C
!AIVDM,1,1,,A,H3`eHgh858T85<0000000000000,2*7D
!AIVDM,1,1,,B,H3`iq90mDU8LPD4h00000000000,2*5D
$PSTON,350.82,N*0a
!AIVDM,1,1,,B,B3`i@Eh0<H5llrWTQ96BKwrQl<3V,0*06
$AODBT,0014.2,f,4.3,M,,*47
!AIVDM,1,1,,A,B39OfBP0=06?aE7RCUu5owrUkP06,0*74
$AODBT,0014.2,f,4.3,M,,*47
!AIVDM,1,1,,B,B3`tLhP0@p6>RVWRjOuE?wrUoP06,0*7E
$IIVWR,025,L,22.1,N,,,,*79
$GPGGA,110754.000,5249.1484,N,00522.5113,E,2,12,0.75,-10.4,M,46.8,M,0000,0000*7A
$GPGSA,A,3,01,20,22,30,21,10,11,27,28,32,08,16,1.22,0.75,0.96*0D
$GPGSV,4,1,13,08,78,263,31,27,60,140,42,21,59,078,40,10,55,074,24*7C
$GPGSV,4,2,13,11,49,278,36,20,25,053,22,01,23,260,35,16,16,187,28*7D
$AODBT,0014.2,f,4.3,M,,*47
$GPGSV,4,3,13,32,15,125,38,22,09,211,30,40,09,115,28,28,07,331,24*74
$GPGSV,4,4,13,30,05,302,20*4E
$GPRMC,110754.000,A,5249.1484,N,00522.5113,E,5.50,111.14,090820,,,D*6A
$PSTOE,0000.00,h,0000.00,h*5d
!AIVDM,1,1,,A,B3`eG1h08864Hg7S?wagCws1l8Oq,0*67
$IIMTW,22.3,C*10
!AIVDM,1,1,,A,33aFesOP000HBc<N:CjN4?wd02sQ,0*46
!AIVDM,1,1,,B,4h2E:wAvB4c7mPG6I@NBHti025HL,0*79
!AIVDM,1,1,,B,B39k2dP0<`61OO7TWheIgws5oP06,0*74
!AIVDM,1,1,,A,B3`hpnh0>`65gnWS8uamWws5oP06,0*57
!AIVDM,1,1,,B,B3`tLhP0@p6>RVWRjOuE?wrUoP06,0*7E
$IIVWR,025,L,22.1,N,,,,*79
$GPGGA,110754.000,5249.1484,N,00522.5113,E,2,12,0.75,-10.4,M,46.8,M,0000,0000*7A
$GPGSA,A,3,01,20,22,30,21,10,11,27,28,32,08,16,1.22,0.75,0.96*0D
$GPGSV,4,1,13,08,78,263,31,27,60,140,42,21,59,078,40,10,55,074,24*7C
$GPGSV,4,2,13,11,49,278,36,20,25,053,22,01,23,260,35,16,16,187,28*7D
$AODBT,0014.2,f,4.3,M,,*47
$GPGSV,4,3,13,32,15,125,38,22,09,211,30,40,09,115,28,28,07,331,24*74
$GPGSV,4,4,13,30,05,302,20*4E
$GPRMC,110754.000,A,5249.1484,N,00522.5113,E,5.50,111.14,090820,,,D*6A
$PSTOE,0000.00,h,0000.00,h*5d
!AIVDM,1,1,,A,B3`eG1h08864Hg7S?wagCws1l8Oq,0*67
$IIMTW,22.3,C*10
!AIVDM,1,1,,A,33aFesOP000HBc<N:CjN4?wd02sQ,0*46
!AIVDM,1,1,,B,4h2E:wAvB4c7mPG6I@NBHti025HL,0*79
!AIVDM,1,1,,B,B39k2dP0<`61OO7TWheIgws5oP06,0*74
!AIVDM,1,1,,A,B3`hpnh0>`65gnWS8uamWws5oP06,0*57
!AIVDM,1,1,,A,B3`mgL@09h65MHWRtfah3ws5CP06,0*5F
!AIVDM,1,1,,A,13`je9@4AHPHIbVN=>LusOwd2HP:,0*21
!AIVDM,1,1,,A,13aGEk8P0nPH<WFN;SvEW?wf25HL,0*40
$IIVWR,025,L,22.1,N,,,,*79
$PSTOS,0007.2,f,0007.2,f,,f*2d
!AIVDM,1,1,,A,13`nvbG000PG2tVNBTfW?lEb00SH,0*48
$GPGGA,110755.000,5249.1480,N,00522.5138,E,2,12,0.75,-10.5,M,46.8,M,0000,0000*77
$AODBT,0013.9,f,4.2,M,,*4a
$GPGSA,A,3,01,20,22,30,21,10,11,27,28,32,08,16,1.22,0.75,0.96*0D
$GPGSV,4,1,13,08,78,263,38,27,60,140,41,21,59,078,41,10,55,074,34*76
$GPGSV,4,2,13,11,49,278,38,20,25,053,21,01,23,260,35,16,16,187,28*70
$GPGSV,4,3,13,32,15,125,39,22,09,211,38,40,09,115,28,28,07,331,25*7C
$PSTOE,0000.00,h,0000.00,h*5d
$GPGSV,4,4,13,30,05,302,21*4F
$PSTON,350.82,N*0a
$GPRMC,110755.000,A,5249.1480,N,00522.5138,E,5.49,110.46,090820,,,D*68
!AIVDM,1,1,,A,B3`mgL@09h65MHWRtfah3ws5CP06,0*5F
!AIVDM,1,1,,A,13`je9@4AHPHIbVN=>LusOwd2HP:,0*21
!AIVDM,1,1,,A,13aGEk8P0nPH<WFN;SvEW?wf25HL,0*40
$IIVWR,025,L,22.1,N,,,,*79
$PSTOS,0007.2,f,0007.2,f,,f*2d
!AIVDM,1,1,,A,13`nvbG000PG2tVNBTfW?lEb00SH,0*48
$GPGGA,110755.000,5249.1480,N,00522.5138,E,2,12,0.75,-10.5,M,46.8,M,0000,0000*77
$AODBT,0013.9,f,4.2,M,,*4a
$GPGSA,A,3,01,20,22,30,21,10,11,27,28,32,08,16,1.22,0.75,0.96*0D
$GPGSV,4,1,13,08,78,263,38,27,60,140,41,21,59,078,41,10,55,074,34*76
$GPGSV,4,2,13,11,49,278,38,20,25,053,21,01,23,260,35,16,16,187,28*70
$GPGSV,4,3,13,32,15,125,39,22,09,211,38,40,09,115,28,28,07,331,25*7C
$PSTOE,0000.00,h,0000.00,h*5d
$GPGSV,4,4,13,30,05,302,21*4F
$PSTON,350.82,N*0a
$GPRMC,110755.000,A,5249.1480,N,00522.5138,E,5.49,110.46,090820,,,D*68
!AIVDM,1,1,,B,13`nuLW000PG2fHNBWd@05kd0@PN,0*67
!AIVDM,1,1,,A,B3aOA?@0A867f@WT<Hd5kwsUoP06,0*0C
!AIVDM,1,1,,B,B39uuE009h6K2AWSU226SwsQhHPU,0*33
!AIVDM,1,1,,B,B3aIj?@0A@5qB67SQQ:9cwsUoP06,0*04
!AIVDM,1,1,,B,340UuFmP00PGHvNN?`SN4?wf2D3r,0*0F
!AIVDM,1,1,,B,13aEPJhP00PJ0?fN?j;h0?wf2@Pk,0*4D
!AIVDM,1,1,,B,13`e=?HP0WPGtL6N<9TlHwwh28Pl,0*23
!AIVDM,1,1,,B,13`nuLW000PG2fHNBWd@05kd0@PN,0*67
!AIVDM,1,1,,A,B3aOA?@0A867f@WT<Hd5kwsUoP06,0*0C
!AIVDM,1,1,,B,B39uuE009h6K2AWSU226SwsQhHPU,0*33
!AIVDM,1,1,,B,B3aIj?@0A@5qB67SQQ:9cwsUoP06,0*04
!AIVDM,1,1,,B,340UuFmP00PGHvNN?`SN4?wf2D3r,0*0F
!AIVDM,1,1,,B,13aEPJhP00PJ0?fN?j;h0?wf2@Pk,0*4D
!AIVDM,1,1,,B,13`e=?HP0WPGtL6N<9TlHwwh28Pl,0*23
$IIVWR,023,L,22.2,N,,,,*7c
$AOXDR,U,13.0,V,BATT*5c
$IIVLW,1623.1,N,009.69,N*4c
$AODBT,0014.1,f,4.3,M,,*44
!AIVDM,1,1,,A,13a2KL?0000GG7nN?hWh01sf2@Pp,0*76
$PSTOE,0000.00,h,0000.00,h*5d
$GPGGA,110756.000,5249.1475,N,00522.5164,E,2,12,0.75,-10.5,M,46.8,M,0000,0000*77
$IIVWR,023,L,23.4,N,,,,*7b
$GPGSA,A,3,01,20,22,30,21,10,11,27,28,32,08,16,1.22,0.75,0.96*0D
$GPGSV,4,1,13,08,78,263,37,27,60,140,41,21,59,078,41,10,55,074,32*7F
$GPGSV,4,2,13,11,49,278,39,20,25,053,28,01,23,260,36,16,16,187,29*7A
$GPGSV,4,3,13,32,15,125,40,22,09,211,37,44,08,114,,28,07,331,26*70
$IIMTW,22.3,C*10
$GPGSV,4,4,13,30,05,302,29*47
$GPRMC,110756.000,A,5249.1475,N,00522.5164,E,5.43,108.43,090820,,,D*6E
!AIVDM,1,1,,B,B3aOAKh0:@5pe8WSAL>BWwt5kP06,0*63
$AODBT,0014.3,f,4.4,M,,*41
!AIVDM,1,1,,B,E>jN6U?1SnPP00000000000000009@@d>uwrP00003v010,4*19
!AIVDM,1,1,,A,139jMt001dPHEbFN;<bMR:qhR8Q;,0*75
$IIVWR,023,L,22.2,N,,,,*7c
$AOXDR,U,13.0,V,BATT*5c
$IIVLW,1623.1,N,009.69,N*4c
$AODBT,0014.1,f,4.3,M,,*44
!AIVDM,1,1,,A,13a2KL?0000GG7nN?hWh01sf2@Pp,0*76
$PSTOE,0000.00,h,0000.00,h*5d
$GPGGA,110756.000,5249.1475,N,00522.5164,E,2,12,0.75,-10.5,M,46.8,M,0000,0000*77
$IIVWR,023,L,23.4,N,,,,*7b
$GPGSA,A,3,01,20,22,30,21,10,11,27,28,32,08,16,1.22,0.75,0.96*0D
$GPGSV,4,1,13,08,78,263,37,27,60,140,41,21,59,078,41,10,55,074,32*7F
$GPGSV,4,2,13,11,49,278,39,20,25,053,28,01,23,260,36,16,16,187,29*7A
$GPGSV,4,3,13,32,15,125,40,22,09,211,37,44,08,114,,28,07,331,26*70
$IIMTW,22.3,C*10
$GPGSV,4,4,13,30,05,302,29*47
$GPRMC,110756.000,A,5249.1475,N,00522.5164,E,5.43,108.43,090820,,,D*6E
!AIVDM,1,1,,B,B3aOAKh0:@5pe8WSAL>BWwt5kP06,0*63
$AODBT,0014.3,f,4.4,M,,*41
!AIVDM,1,1,,B,E>jN6U?1SnPP00000000000000009@@d>uwrP00003v010,4*19
!AIVDM,1,1,,A,139jMt001dPHEbFN;<bMR:qhR8Q;,0*75
!AIVDM,1,1,,B,13aGFK?P0T0IA18N=fuMo?wh0@Q<,0*49
!AIVDM,1,1,,B,H39nRu0H5B0lE8l4T@000000000,2*7E
!AIVDM,1,1,,A,B3aJI7h09P65657S==5h?wt5kP06,0*3E
!AIVDM,1,1,,A,13`qJv@P00PHfr:NBp5f4?wh25HL,0*17
$IIVWR,024,L,22.8,N,,,,9*48
$GPGGA,110757.000,5249.1470,N,00522.5188,E,2,11,0.83,-10.6,M,46.8,M,0000,0000*78
$GPGSA,A,3,01,20,22,30,21,10,11,27,32,08,16,,1.34,0.83,1.05*02
$GPGSV,4,1,13,08,78,263,29,27,60,140,42,21,59,078,27,10,55,074,41*77
$AOXDR,U,13.0,V,BATT*5c
$GPGSV,4,2,13,11,49,278,39,20,25,053,29,01,23,260,37,16,16,187,29*7A
!AIVDM,1,1,,B,13aGFK?P0T0IA18N=fuMo?wh0@Q<,0*49
!AIVDM,1,1,,B,H39nRu0H5B0lE8l4T@000000000,2*7E
!AIVDM,1,1,,A,B3aJI7h09P65657S==5h?wt5kP06,0*3E
!AIVDM,1,1,,A,13`qJv@P00PHfr:NBp5f4?wh25HL,0*17
$IIVWR,024,L,22.8,N,,,,9*48
$GPGGA,110757.000,5249.1470,N,00522.5188,E,2,11,0.83,-10.6,M,46.8,M,0000,0000*78
$GPGSA,A,3,01,20,22,30,21,10,11,27,32,08,16,,1.34,0.83,1.05*02
$GPGSV,4,1,13,08,78,263,29,27,60,140,42,21,59,078,27,10,55,074,41*77
$AOXDR,U,13.0,V,BATT*5c
$GPGSV,4,2,13,11,49,278,39,20,25,053,29,01,23,260,37,16,16,187,29*7A
$GPGSV,4,3,13,32,15,125,39,22,09,211,35,44,08,114,,28,07,331,19*70
$GPGSV,4,4,13,30,05,302,29*47
!AIVDM,1,1,,A,13aDrIwP00PHQT2N@h9S>Owh28QU,0*5E
$GPRMC,110757.000,A,5249.1470,N,00522.5188,E,5.46,109.65,090820,,,D*68
$AODBT,0014.7,f,4.5,M,,*44
$IIVWR,022,L,22.8,N,,,,*77
!AIVDM,1,1,,B,B3`euJP0805wtPWT7JmbcwtUoP06,0*1D
!AIVDM,1,1,,B,13`i<;PP0aPHAUbN:sb5gOwj2<5C,0*0B
!AIVDM,1,1,,A,13aI9wpP000H=;FN9kW>4?wj0D7r,0*08
$GPGSV,4,3,13,32,15,125,39,22,09,211,35,44,08,114,,28,07,331,19*70
$GPGSV,4,4,13,30,05,302,29*47
!AIVDM,1,1,,A,13aDrIwP00PHQT2N@h9S>Owh28QU,0*5E
$GPRMC,110757.000,A,5249.1470,N,00522.5188,E,5.46,109.65,090820,,,D*68
$AODBT,0014.7,f,4.5,M,,*44
$IIVWR,022,L,22.8,N,,,,*77
!AIVDM,1,1,,B,B3`euJP0805wtPWT7JmbcwtUoP06,0*1D
!AIVDM,1,1,,B,13`i<;PP0aPHAUbN:sb5gOwj2<5C,0*0B
!AIVDM,1,1,,A,13aI9wpP000H=;FN9kW>4?wj0D7r,0*08
!AIVDM,1,1,,A,B3aC5100;865d47RwG9kSwtUoP06,0*1A
!AIVDM,1,1,,B,33aGF5mP00PHReDN@bFv4?wj2DTr,0*3C
$PSTOE,0000.00,h,0000.00,h*5d
$AODBT,0014.7,f,4.5,M,,*44
!AIVDM,1,1,,A,13aEP6?P10PH`kdN;nluiOwl2HR5,0*5D
!AIVDM,1,1,,B,13aDqdPP1U0HCODN;BLeq?wl00Sl,0*37
!AIVDM,1,1,,A,B39QnWP0>P65GL7SG547GwtUkP06,0*39
$GPGGA,110758.000,5249.1465,N,00522.5213,E,2,11,0.83,-10.6,M,46.8,M,0000,0000*72
$AODBT,0014.7,f,4.5,M,,*44
$GPGSA,A,3,01,20,22,30,21,10,11,27,32,08,16,,1.34,0.83,1.05*02
$GPGSV,4,1,13,08,78,263,29,27,60,140,41,21,59,078,26,10,55,074,41*75
$GPGSV,4,2,13,11,49,278,38,20,25,053,29,01,23,260,37,16,16,187,30*73
$IIVWR,025,L,20.1,N,,,,*7b
$GPGSV,4,3,13,32,15,125,38,22,09,211,34,44,08,114,,28,07,331,19*70
$GPGSV,4,4,13,30,05,302,29*47
$GPRMC,110758.000,A,5249.1465,N,00522.5213,E,5.45,110.52,090820,,,D*6D
$PSTOL,15.0,p*3e
!AIVDM,1,1,,B,13`eRa@P0tPHFA`N@fvivOwl28RB,0*75
!AIVDM,1,1,,A,B3aC5100;865d47RwG9kSwtUoP06,0*1A
!AIVDM,1,1,,B,33aGF5mP00PHReDN@bFv4?wj2DTr,0*3C
$PSTOE,0000.00,h,0000.00,h*5d
$AODBT,0014.7,f,4.5,M,,*44
!AIVDM,1,1,,A,13aEP6?P10PH`kdN;nluiOwl2HR5,0*5D
!AIVDM,1,1,,B,13aDqdPP1U0HCODN;BLeq?wl00Sl,0*37
!AIVDM,1,1,,A,B39QnWP0>P65GL7SG547GwtUkP06,0*39
$GPGGA,110758.000,5249.1465,N,00522.5213,E,2,11,0.83,-10.6,M,46.8,M,0000,0000*72
$AODBT,0014.7,f,4.5,M,,*44
$GPGSA,A,3,01,20,22,30,21,10,11,27,32,08,16,,1.34,0.83,1.05*02
$GPGSV,4,1,13,08,78,263,29,27,60,140,41,21,59,078,26,10,55,074,41*75
$GPGSV,4,2,13,11,49,278,38,20,25,053,29,01,23,260,37,16,16,187,30*73
$IIVWR,025,L,20.1,N,,,,*7b
$GPGSV,4,3,13,32,15,125,38,22,09,211,34,44,08,114,,28,07,331,19*70
$GPGSV,4,4,13,30,05,302,29*47
$GPRMC,110758.000,A,5249.1465,N,00522.5213,E,5.45,110.52,090820,,,D*6D
$PSTOL,15.0,p*3e
!AIVDM,1,1,,B,13`eRa@P0tPHFA`N@fvivOwl28RB,0*75
!AIVDM,1,1,,B,B3aPOW000H68omWT4Sc?kwu5oP06,0*54
!AIVDM,1,1,,B,B3`eJEh09H6D617SU9FaKwu1l5HL,0*08
!AIVDM,1,1,,B,B39tm@P0Ch67jt7SWS>nGwu5kP06,0*1D
!AIVDM,1,1,,B,B3`hqqP0>`66u17SnWR3cwu5oP06,0*77
!AIVDM,1,1,,B,B3`en6h0>06:@rWRjbBvcwu5kP06,0*31
!AIVDM,1,1,,A,13aL>p8P0gPH49BN<0@M:Owl25HL,0*0D
!AIVDM,1,1,,A,B3`sq800>p64Pd7Spop1kwu5oP06,0*2A
$PSTON,350.83,N*0b
!AIVDM,1,1,,B,13aGtJPP00PIwTRN?`=v4?wn20Sk,0*25
$PSTOE,0000.00,h,0000.00,h*5d
$AODBT,0014.7,f,4.5,M,,*44
!AIVDM,1,1,,B,B3aPOW000H68omWT4Sc?kwu5oP06,0*54
!AIVDM,1,1,,B,B3`eJEh09H6D617SU9FaKwu1l5HL,0*08
!AIVDM,1,1,,B,B39tm@P0Ch67jt7SWS>nGwu5kP06,0*1D
!AIVDM,1,1,,B,B3`hqqP0>`66u17SnWR3cwu5oP06,0*77
!AIVDM,1,1,,B,B3`en6h0>06:@rWRjbBvcwu5kP06,0*31
!AIVDM,1,1,,A,13aL>p8P0gPH49BN<0@M:Owl25HL,0*0D
!AIVDM,1,1,,A,B3`sq800>p64Pd7Spop1kwu5oP06,0*2A
$PSTON,350.83,N*0b
!AIVDM,1,1,,B,13aGtJPP00PIwTRN?`=v4?wn20Sk,0*25
$PSTOE,0000.00,h,0000.00,h*5d
$AODBT,0014.7,f,4.5,M,,*44
!AIVDM,1,1,,A,B3aB:B00?867iW7SP6G:Kwu5oP06,0*0E
$IIVWR,023,L,20.0,N,,,,*7c
$GPGGA,110759.000,5249.1461,N,00522.5237,E,2,12,0.75,-10.7,M,46.8,M,0000,0000*7A
$GPGSA,A,3,01,20,22,30,21,10,11,27,28,32,08,16,1.22,0.75,0.97*0C
$GPGSV,4,1,13,08,78,263,38,27,60,140,40,21,59,078,33,10,55,074,40*71
$GPGSV,4,2,13,11,49,278,37,20,25,053,30,01,23,260,36,16,16,187,30*75
$GPGSV,4,3,13,32,15,125,36,22,09,211,35,44,08,114,,28,07,331,19*7F
$GPGSV,4,4,13,30,05,302,29*47
$GPRMC,110759.000,A,5249.1461,N,00522.5237,E,5.45,110.41,090820,,,D*6C
!AIVDM,1,1,,B,13aPNkOP00PGIGPN<Uo>4?wn2@Rk,0*4A
$AODBT,0014.3,f,4.4,M,,*41
!AIVDM,1,1,,A,B3`h?t@0>p65pmWSi<45CwuUoP06,0*49
$PSTOE,0000.00,h,0000.00,h*5d
$IIVWR,025,L,20.0,N,,,,*7a
!AIVDM,1,1,,A,B39r3rP0B065A<WS`aH3swu5kP06,0*36
!AIVDM,1,1,,B,13`p;pPP00PGI`lN<W<f4?wn2<0o,0*12
!AIVDM,1,1,,A,B3aB:B00?867iW7SP6G:Kwu5oP06,0*0E
$IIVWR,023,L,20.0,N,,,,*7c
$GPGGA,110759.000,5249.1461,N,00522.5237,E,2,12,0.75,-10.7,M,46.8,M,0000,0000*7A
$GPGSA,A,3,01,20,22,30,21,10,11,27,28,32,08,16,1.22,0.75,0.97*0C
$GPGSV,4,1,13,08,78,263,38,27,60,140,40,21,59,078,33,10,55,074,40*71
$GPGSV,4,2,13,11,49,278,37,20,25,053,30,01,23,260,36,16,16,187,30*75
$GPGSV,4,3,13,32,15,125,36,22,09,211,35,44,08,114,,28,07,331,19*7F
$GPGSV,4,4,13,30,05,302,29*47
$GPRMC,110759.000,A,5249.1461,N,00522.5237,E,5.45,110.41,090820,,,D*6C
!AIVDM,1,1,,B,13aPNkOP00PGIGPN<Uo>4?wn2@Rk,0*4A
$AODBT,0014.3,f,4.4,M,,*41
!AIVDM,1,1,,A,B3`h?t@0>p65pmWSi<45CwuUoP06,0*49
$PSTOE,0000.00,h,0000.00,h*5d
$IIVWR,025,L,20.0,N,,,,*7a
!AIVDM,1,1,,A,B39r3rP0B065A<WS`aH3swu5kP06,0*36
!AIVDM,1,1,,B,13`p;pPP00PGI`lN<W<f4?wn2<0o,0*12
!AIVDM,1,1,,B,83aGF5hj2d<dt<tddhUhJ@O03L00,0*14
!AIVDM,1,1,,B,13aDpVg000PGH0jN<c77s`;n0801,0*28
$IIMTW,22.3,C*10
$GPGGA,110800.000,5249.1455,N,00522.5262,E,2,12,0.75,-10.8,M,46.8,M,0000,0000*71
!AIVDM,1,1,,B,B3aFeHP00H69VAWT8ADkGwP5oP06,0*67
$AODBT,0014.5,f,4.4,M,,*47
$GPGSA,A,3,01,20,22,30,21,10,11,27,28,32,08,16,1.22,0.75,0.97*0C
$GPGSV,4,1,13,08,78,263,37,27,60,140,39,21,59,078,34,10,55,074,39*79
$GPGSV,4,2,13,11,49,278,35,20,25,053,30,01,24,260,36,16,16,187,28*79
$GPGSV,4,3,13,32,15,125,36,22,09,211,36,44,08,114,,28,07,331,26*70
$PSTOE,0000.00,h,0000.00,h*5d
$GPGSV,4,4,13,30,05,302,27*49
$GPRMC,110800.000,A,5249.1455,N,00522.5262,E,5.69,111.05,090820,,,D*67
!AIVDM,1,1,,B,13aQfwPP00PI8IPN@uJf4?v02H0D,0*2A
$IIVLW,1623.1,N,009.70,N*44
!AIVDM,1,1,,B,83aGF5hj2d<dt<tddhUhJ@O03L00,0*14
!AIVDM,1,1,,B,13aDpVg000PGH0jN<c77s`;n0801,0*28
$IIMTW,22.3,C*10
$GPGGA,110800.000,5249.1455,N,00522.5262,E,2,12,0.75,-10.8,M,46.8,M,0000,0000*71
!AIVDM,1,1,,B,B3aFeHP00H69VAWT8ADkGwP5oP06,0*67
$AODBT,0014.5,f,4.4,M,,*47
$GPGSA,A,3,01,20,22,30,21,10,11,27,28,32,08,16,1.22,0.75,0.97*0C
$GPGSV,4,1,13,08,78,263,37,27,60,140,39,21,59,078,34,10,55,074,39*79
$GPGSV,4,2,13,11,49,278,35,20,25,053,30,01,24,260,36,16,16,187,28*79
$GPGSV,4,3,13,32,15,125,36,22,09,211,36,44,08,114,,28,07,331,26*70
$PSTOE,0000.00,h,0000.00,h*5d
$GPGSV,4,4,13,30,05,302,27*49
$GPRMC,110800.000,A,5249.1455,N,00522.5262,E,5.69,111.05,090820,,,D*67
!AIVDM,1,1,,B,13aQfwPP00PI8IPN@uJf4?v02H0D,0*2A
$IIVLW,1623.1,N,009.70,N*44
!AIVDM,1,1,,B,B3`mrk@0<@66Ie7SgbP?3wP5oP06,0*76
$IIVWR,026,L,21.4,N,,,,*7c
!AIVDM,1,1,,B,B3aB97h0;p63d4WRvMU9swP5oP06,0*35
!AIVDM,1,1,,B,B3`mrk@0<@66Ie7SgbP?3wP5oP06,0*76
$IIVWR,026,L,21.4,N,,,,*7c
!AIVDM,1,1,,B,B3aB97h0;p63d4WRvMU9swP5oP06,0*35
!AIVDM,1,1,,A,B39FU@009`61R8WT3vv6CwP1l<0>,0*04
!AIVDM,1,1,,B,B3`ek9P0?P65A9WR`NoASwP5oP06,0*0A
!AIVDM,1,1,,A,B3`de@P04`5ucW7SRbbCwwP1lD2o,0*57
$IIVWR,026,L,21.6,N,,,,*7e
!AIVDM,1,1,,B,B3`fKa@06@60qp7SI8VvOwP5oP06,0*28
$AODBT,0014.5,f,4.4,M,,*47
$AOXDR,U,13.0,V,BATT*5c
$GPGGA,110801.000,5249.1450,N,00522.5286,E,2,12,0.75,-10.9,M,46.8,M,0000,0000*7E
$GPGSA,A,3,01,20,22,30,21,10,11,27,28,32,08,16,1.22,0.75,0.97*0C
$GPGSV,4,1,13,08,78,263,37,27,60,140,40,21,59,078,33,10,55,074,40*7E
$GPGSV,4,2,13,11,49,278,34,20,25,053,32,01,24,260,35,16,16,187,27*76
$GPGSV,4,3,13,32,15,125,36,22,09,211,36,44,08,114,,28,07,331,25*73
$GPGSV,4,4,13,30,05,302,26*48
$GPRMC,110801.000,A,5249.1450,N,00522.5286,E,5.66,111.11,090820,,,D*63
!AIVDM,1,1,,B,E>jN6<?20W3Ra7bah0a2PP0000009HUO>sAdP00003v010,4*06
!AIVDM,1,1,,B,H39Q@fTU1=3000947nhqnP0h713t,0*74
$AODBT,0015.1,f,4.6,M,,*40
$IIVWR,031,L,21.6,N,,,,*78
!AIVDM,1,1,,A,B39FU@009`61R8WT3vv6CwP1l<0>,0*04
!AIVDM,1,1,,B,B3`ek9P0?P65A9WR`NoASwP5oP06,0*0A
!AIVDM,1,1,,A,B3`de@P04`5ucW7SRbbCwwP1lD2o,0*57
$IIVWR,026,L,21.6,N,,,,*7e
!AIVDM,1,1,,B,B3`fKa@06@60qp7SI8VvOwP5oP06,0*28
$AODBT,0014.5,f,4.4,M,,*47
$AOXDR,U,13.0,V,BATT*5c
$GPGGA,110801.000,5249.1450,N,00522.5286,E,2,12,0.75,-10.9,M,46.8,M,0000,0000*7E
$GPGSA,A,3,01,20,22,30,21,10,11,27,28,32,08,16,1.22,0.75,0.97*0C
$GPGSV,4,1,13,08,78,263,37,27,60,140,40,21,59,078,33,10,55,074,40*7E
$GPGSV,4,2,13,11,49,278,34,20,25,053,32,01,24,260,35,16,16,187,27*76
$GPGSV,4,3,13,32,15,125,36,22,09,211,36,44,08,114,,28,07,331,25*73
$GPGSV,4,4,13,30,05,302,26*48
$GPRMC,110801.000,A,5249.1450,N,00522.5286,E,5.66,111.11,090820,,,D*63
!AIVDM,1,1,,B,E>jN6<?20W3Ra7bah0a2PP0000009HUO>sAdP00003v010,4*06
!AIVDM,1,1,,B,H39Q@fTU1=3000947nhqnP0h713t,0*74
$AODBT,0015.1,f,4.6,M,,*40
$IIVWR,031,L,21.6,N,,,,*78
!AIVDM,1,1,,A,13`l9H800cPHfR0N:Vp<Tr<40<DE,0*53
!AIVDM,1,1,,A,B3aB7pP05p5v@m7SN=BawwPUoP06,0*70
!AIVDM,1,1,,A,H3`e>OTTFC@<::`@7pinj00h5400,0*33
!AIVDM,1,1,,B,13aIiFHP13PHP:4NAj5@KOv42816,0*27
$PSTOW,035,L*35
$IIVWR,028,L,21.6,N,,,,*70
!AIVDM,1,1,,A,B3aB:k00@h6@HcWSIUt>swPUkP06,0*3E
$GPGGA,110802.000,5249.1444,N,00522.5308,E,2,11,0.83,-10.9,M,46.8,M,0000,0000*75
$GPGSA,A,3,01,20,22,30,21,10,11,27,32,08,16,,1.34,0.83,1.05*02
!AIVDM,1,1,,A,13`l9H800cPHfR0N:Vp<Tr<40<DE,0*53
!AIVDM,1,1,,A,B3aB7pP05p5v@m7SN=BawwPUoP06,0*70
!AIVDM,1,1,,A,H3`e>OTTFC@<::`@7pinj00h5400,0*33
!AIVDM,1,1,,B,13aIiFHP13PHP:4NAj5@KOv42816,0*27
$PSTOW,035,L*35
$IIVWR,028,L,21.6,N,,,,*70
!AIVDM,1,1,,A,B3aB:k00@h6@HcWSIUt>swPUkP06,0*3E
$GPGGA,110802.000,5249.1444,N,00522.5308,E,2,11,0.83,-10.9,M,46.8,M,0000,0000*75
$GPGSA,A,3,01,20,22,30,21,10,11,27,32,08,16,,1.34,0.83,1.05*02
$GPGSV,4,1,13,08,78,263,37,27,60,140,41,21,59,078,22,10,55,074,40*7F
$AODBT,0014.7,f,4.5,M,,*44
$GPGSV,4,2,13,11,49,278,34,20,25,053,31,01,24,260,34,16,16,187,28*7B
$GPGSV,4,3,13,32,15,125,36,22,09,211,36,44,08,114,,28,07,331,17*72
$GPGSV,4,4,13,30,05,302,18*45
!AIVDM,1,1,,B,B3`j5b@0>861:jWTCp2TOwQ5oP06,0*1B
$GPRMC,110802.000,A,5249.1444,N,00522.5308,E,5.65,110.27,090820,,,D*65
!AIVDM,1,1,,A,B39Gg`00;P63wu7SWcnBKwQ5kP06,0*5B
$IIVWR,027,L,22.8,N,,,,*72
!AIVDM,1,1,,A,B3`nw<00A868maWSOp9HOwQ5oP06,0*46
!AIVDM,1,1,,A,B3`e<IP0:H60l:7TH<b5CwQ1l0S8,0*46
!AIVDM,1,1,,A,B39FOt007p60U`7Sd=jDKwQ5oP06,0*15
!AIVDM,1,1,,B,13aL>t@P00PH=<6N9kKN4?v420SS,0*2D
!AIVDM,1,1,,B,D02E350m`g6D000000000000000,2*3A
!AIVDM,1,1,,B,B3`lLDh09P65W3WSBaikowQ1n0Fi,0*2A
$GPGSV,4,1,13,08,78,263,37,27,60,140,41,21,59,078,22,10,55,074,40*7F
$AODBT,0014.7,f,4.5,M,,*44
$GPGSV,4,2,13,11,49,278,34,20,25,053,31,01,24,260,34,16,16,187,28*7B
$GPGSV,4,3,13,32,15,125,36,22,09,211,36,44,08,114,,28,07,331,17*72
$GPGSV,4,4,13,30,05,302,18*45
!AIVDM,1,1,,B,B3`j5b@0>861:jWTCp2TOwQ5oP06,0*1B
$GPRMC,110802.000,A,5249.1444,N,00522.5308,E,5.65,110.27,090820,,,D*65
!AIVDM,1,1,,A,B39Gg`00;P63wu7SWcnBKwQ5kP06,0*5B
$IIVWR,027,L,22.8,N,,,,*72
!AIVDM,1,1,,A,B3`nw<00A868maWSOp9HOwQ5oP06,0*46
!AIVDM,1,1,,A,B3`e<IP0:H60l:7TH<b5CwQ1l0S8,0*46
!AIVDM,1,1,,A,B39FOt007p60U`7Sd=jDKwQ5oP06,0*15
!AIVDM,1,1,,B,13aL>t@P00PH=<6N9kKN4?v420SS,0*2D
!AIVDM,1,1,,B,D02E350m`g6D000000000000000,2*3A
!AIVDM,1,1,,B,B3`lLDh09P65W3WSBaikowQ1n0Fi,0*2A
!AIVDM,1,1,,B,83aFeehj2d<ddL<<uPI0H@OP3M00,0*18
$PSTOE,0000.00,h,0000.00,h*5d
$AODBT,0014.6,f,4.5,M,,*45
$IIVWR,030,L,22.8,N,,,,*74
!AIVDM,1,1,,B,H3aQedTU71B=9>0@8qnip01H0220,0*17
$GPGGA,110803.000,5249.1438,N,00522.5331,E,2,12,0.75,-11.1,M,46.8,M,0000,0000*76
$GPGSA,A,3,01,20,22,30,21,10,11,27,28,32,08,16,1.22,0.75,0.97*0C
$GPGSV,4,1,13,08,78,263,37,27,60,140,41,21,59,078,21,10,55,074,40*7C
$GPGSV,4,2,13,11,49,278,33,20,25,053,30,01,24,260,32,16,16,187,29*7A
$GPGSV,4,3,13,32,15,125,37,22,09,211,37,44,08,114,,28,07,331,27*71
$PSTON,350.84,N*0c
$GPGSV,4,4,13,30,05,302,19*44
$GPRMC,110803.000,A,5249.1438,N,00522.5331,E,5.59,108.97,090820,,,D*68
!AIVDM,1,1,,A,13aI<LpP0mPH9:nN?`w52gv625HP,0*2D
!AIVDM,1,1,,B,B3aO@UP00868WO7T7StgkwQUoP06,0*24
!AIVDM,1,1,,B,H3aFeHQHTdTpL00000000000000,2*17
$AODBT,0014.7,f,4.5,M,,*44
!AIVDM,1,1,,A,13aFgjgP0SPHw3vN<3EI<Ov62<0W,0*67
!AIVDM,1,1,,B,83aFeehj2d<ddL<<uPI0H@OP3M00,0*18
$PSTOE,0000.00,h,0000.00,h*5d
$AODBT,0014.6,f,4.5,M,,*45
$IIVWR,030,L,22.8,N,,,,*74
!AIVDM,1,1,,B,H3aQedTU71B=9>0@8qnip01H0220,0*17
$GPGGA,110803.000,5249.1438,N,00522.5331,E,2,12,0.75,-11.1,M,46.8,M,0000,0000*76
$GPGSA,A,3,01,20,22,30,21,10,11,27,28,32,08,16,1.22,0.75,0.97*0C
$GPGSV,4,1,13,08,78,263,37,27,60,140,41,21,59,078,21,10,55,074,40*7C
$GPGSV,4,2,13,11,49,278,33,20,25,053,30,01,24,260,32,16,16,187,29*7A
$GPGSV,4,3,13,32,15,125,37,22,09,211,37,44,08,114,,28,07,331,27*71
$PSTON,350.84,N*0c
$GPGSV,4,4,13,30,05,302,19*44
$GPRMC,110803.000,A,5249.1438,N,00522.5331,E,5.59,108.97,090820,,,D*68
!AIVDM,1,1,,A,13aI<LpP0mPH9:nN?`w52gv625HP,0*2D
!AIVDM,1,1,,B,B3aO@UP00868WO7T7StgkwQUoP06,0*24
!AIVDM,1,1,,B,H3aFeHQHTdTpL00000000000000,2*17
$AODBT,0014.7,f,4.5,M,,*44
!AIVDM,1,1,,A,13aFgjgP0SPHw3vN<3EI<Ov62<0W,0*67
$IIVLW,1623.1,N,009.71,N*45
$PSTOE,0000.00,h,0000.00,h*5d
!AIVDM,1,1,,A,B3aPMR@0A862T7WSCKuV;wR5oP06,0*2A
$GPGGA,110804.000,5249.1432,N,00522.5354,E,2,12,0.75,-11.1,M,46.8,M,0000,0000*78
$GPGSA,A,3,01,20,22,30,21,10,11,27,28,32,08,16,1.22,0.75,0.97*0C
$IIMTW,22.3,C*10
$GPGSV,4,1,13,08,78,263,36,27,60,140,41,21,59,078,21,10,55,074,40*7D
$GPGSV,4,2,13,11,49,278,34,20,25,053,28,01,24,260,30,16,16,187,28*77
$GPGSV,4,3,13,32,15,125,37,22,09,211,38,44,08,114,,28,07,331,26*7F
$GPGSV,4,4,13,30,05,302,19*44
$GPRMC,110804.000,A,5249.1432,N,00522.5354,E,5.57,107.74,090820,,,D*6A
$IIVWR,027,L,21.9,N,,,,*70
$AODBT,0014.4,f,4.4,M,,*46
!AIVDM,1,1,,B,13aLn>HP0<0Gf?jN@?H`=Ov600Rp,0*03
!AIVDM,1,1,,A,H3`eHglTC=D53bi@6Pmnkq1H0040,0*3A
!AIVDM,1,1,,B,B3`g`oP05064;FWRQ<:CGwR5kP06,0*3D
!AIVDM,1,1,,A,B39NomP0<`65r27Rerm1cwR1l<2j,0*0C
$IIVLW,1623.1,N,009.71,N*45
$PSTOE,0000.00,h,0000.00,h*5d
!AIVDM,1,1,,A,B3aPMR@0A862T7WSCKuV;wR5oP06,0*2A
$GPGGA,110804.000,5249.1432,N,00522.5354,E,2,12,0.75,-11.1,M,46.8,M,0000,0000*78
$GPGSA,A,3,01,20,22,30,21,10,11,27,28,32,08,16,1.22,0.75,0.97*0C
$IIMTW,22.3,C*10
$GPGSV,4,1,13,08,78,263,36,27,60,140,41,21,59,078,21,10,55,074,40*7D
$GPGSV,4,2,13,11,49,278,34,20,25,053,28,01,24,260,30,16,16,187,28*77
$GPGSV,4,3,13,32,15,125,37,22,09,211,38,44,08,114,,28,07,331,26*7F
$GPGSV,4,4,13,30,05,302,19*44
$GPRMC,110804.000,A,5249.1432,N,00522.5354,E,5.57,107.74,090820,,,D*6A
$IIVWR,027,L,21.9,N,,,,*70
$AODBT,0014.4,f,4.4,M,,*46
!AIVDM,1,1,,B,13aLn>HP0<0Gf?jN@?H`=Ov600Rp,0*03
!AIVDM,1,1,,A,H3`eHglTC=D53bi@6Pmnkq1H0040,0*3A
!AIVDM,1,1,,B,B3`g`oP05064;FWRQ<:CGwR5kP06,0*3D
!AIVDM,1,1,,A,B39NomP0<`65r27Rerm1cwR1l<2j,0*0C
$AODBT,0014.2,f,4.3,M,,*47
!AIVDM,1,1,,B,B3`e<nP08H5oEQ7S7V32SwRUoP06,0*43
$IIVWR,027,L,21.5,N,,,,*7c
!AIVDM,1,1,,B,B3aN4Uh0;86I=3WSHWV23wRQn12A,0*24
!AIVDM,1,1,,B,B3`lrvP0Ap69u67Rp0EGKwRQl0S8,0*6E
$AODBT,0014.2,f,4.3,M,,*47
!AIVDM,1,1,,B,B3`e<nP08H5oEQ7S7V32SwRUoP06,0*43
$IIVWR,027,L,21.5,N,,,,*7c
!AIVDM,1,1,,B,B3aN4Uh0;86I=3WSHWV23wRQn12A,0*24
!AIVDM,1,1,,B,B3`lrvP0Ap69u67Rp0EGKwRQl0S8,0*6E
!AIVDM,1,1,,A,13aGFK?P0U0IA0hN=gDMp?v<083V,0*10
$AODBT,0014.9,f,4.5,M,,*4a
$IIVWR,027,L,22.5,N,,,,*7f
$GPGGA,110806.000,5249.1419,N,00522.5392,E,2,12,0.75,-11.2,M,46.8,M,0000,0000*7A
$GPGSA,A,3,01,20,22,30,21,10,11,27,28,32,08,16,1.22,0.75,0.97*0C
$GPGSV,4,1,13,08,78,263,36,27,60,140,41,21,59,078,30,10,55,074,39*73
$GPGSV,4,2,13,11,49,278,35,20,25,053,25,36,25,148,,01,24,260,29*78
$PSTON,350.84,N*0c
$GPGSV,4,3,13,16,16,187,29,32,15,125,37,22,09,211,38,28,07,331,25*75
$GPGSV,4,4,13,30,05,302,20*4E
